id,name,network_level,source,lat,lon,coord_source,coord_quality,voltage_in_kv,voltage_out_kv,voltage_levels,voltage_source,capacity_available_mw,capacity_reserved_mw,capacity_total_mw,operator,commune,departement,region,function,substation_type,osm_id,osm_match_score,osm_match_distance_m,source_id,code_insee,capacity_source,last_updated,notes
RTE_1CLAM,CLAMART,TX,RTE_ODRE,48.799454,2.2593249,OSM,EXACT,225.0,,225kV,OFFICIAL,,,,RTE,,Hauts-de-Seine,,Poste de transformation,transmission,way_116702384,1.0,,1CLAM,,MISSING,2025-12-13T02:56:37.469307,
RTE_A.HUE,ALPE-D HUEZ,TX,RTE_ODRE,,,MISSING,MISSING,63.0,,63kV,OFFICIAL,,,,RTE,,Isère,,Poste de transformation,,,,,A.HUE,,MISSING,2025-12-13T02:56:37.469347,
RTE_A.LI7,AIR-LIQUIDE (SOGIF),TX,RTE_ODRE,44.367202,4.7090766,OSM,EXACT,63.0,,63kV,OFFICIAL,,,,RTE,,Ardèche,,Poste de transformation,industrial,way_278718678,0.9,,A.LI7,,MISSING,2025-12-13T02:56:37.469362,
RTE_A.TO5,ARSENAL DE TOULON,TX,RTE_ODRE,47.9939919,0.2105709,OSM,EXACT,63.0,,63kV,OFFICIAL,,,,RTE,,Var,,Poste de transformation,minor_distribution,way_65554981,0.9,,A.TO5,,MISSING,2025-12-13T02:56:37.469370,
RTE_ALBIA,ALBIAS,TX,RTE_ODRE,,,MISSING,MISSING,63.0,,63kV,OFFICIAL,,,,RTE,,Tarn-et-Garonne,,Poste de transformation,,,,,ALBIA,,MISSING,2025-12-13T02:56:37.469378,
RTE_ALLIN,ALLINGES,TX,RTE_ODRE,,,MISSING,MISSING,225.0,,225kV,OFFICIAL,,,,RTE,,Haute-Savoie,,Poste de transformation,,,,,ALLIN,,MISSING,2025-12-13T02:56:37.469384,
RTE_ALRAN,ALRANCE,TX,RTE_ODRE,,,MISSING,MISSING,63.0,,63kV,OFFICIAL,,,,RTE,,Aveyron,,Poste de transformation,,,,,ALRAN,,MISSING,2025-12-13T02:56:37.469389,
RTE_ASASP,ASASP,TX,RTE_ODRE,,,MISSING,MISSING,63.0,,63kV,OFFICIAL,,,,RTE,,Pyrénées-Atlantiques,,Poste de transformation,,,,,ASASP,,MISSING,2025-12-13T02:56:37.469398,
RTE_AUBER,AUBERVILLE,TX,RTE_ODRE,,,MISSING,MISSING,90.0,,90kV,OFFICIAL,,,,RTE,,Seine-Maritime,,Poste de transformation,,,,,AUBER,,MISSING,2025-12-13T02:56:37.469405,
RTE_AULNA,AULNAY (-AUX-PLANCHES),TX,RTE_ODRE,,,MISSING,MISSING,90.0,,90kV,OFFICIAL,,,,RTE,,Marne,,Poste de transformation,,,,,AULNA,,MISSING,2025-12-13T02:56:37.469410,
RTE_B.AI5,BEL-AIR (CLIENT),TX,RTE_ODRE,43.7334786,-1.0741584,OSM,EXACT,90.0,,90kV,OFFICIAL,,,,RTE,,Maine-et-Loire,,Poste de transformation,minor_distribution,node_5765730836,0.9,,B.AI5,,MISSING,2025-12-13T02:56:37.469414,
RTE_BACAL,BACALAN,TX,RTE_ODRE,44.8822758,-0.5458476,OSM,EXACT,225.0,,225kV,OFFICIAL,,,,RTE,,Gironde,,Poste de transformation,transmission,way_147394004,0.9,,BACAL,,MISSING,2025-12-13T02:56:37.469417,
RTE_BALAR,BALARUC,TX,RTE_ODRE,43.446012,3.7061926,OSM,EXACT,225.0,,225kV,OFFICIAL,,,,RTE,,Hérault,,Poste de transformation,transmission,way_129830455,0.9,,BALAR,,MISSING,2025-12-13T02:56:37.469421,
RTE_BAUDR,BAUDRY,TX,RTE_ODRE,48.8722675,2.3067513,OSM,EXACT,225.0,,225kV,OFFICIAL,,,,RTE,,Hauts-de-Seine,,Poste de transformation,distribution,way_69104422,0.9,,BAUDR,,MISSING,2025-12-13T02:56:37.469425,
RTE_BESS6,BESSANGES (CLIENT),TX,RTE_ODRE,45.0844408,-0.0583238,OSM,EXACT,90.0,,90kV,OFFICIAL,,,,RTE,,Gironde,,Poste de transformation,distribution,way_491416968,0.9,,BESS6,,MISSING,2025-12-13T02:56:37.469429,
RTE_BETHE,BETHENY,TX,RTE_ODRE,49.2754807,4.0418206,OSM,EXACT,63.0,,63kV,OFFICIAL,,,,RTE,,Marne,,Poste de transformation,traction,way_231743539,0.9,,BETHE,,MISSING,2025-12-13T02:56:37.469433,
RTE_BETHI,BETHISY,TX,RTE_ODRE,,,MISSING,MISSING,63.0,,63kV,OFFICIAL,,,,RTE,,Oise,,Poste de transformation,,,,,BETHI,,MISSING,2025-12-13T02:56:37.469436,
RTE_BREV7,BREVANNES,TX,RTE_ODRE,48.7579007,2.4681729,OSM,EXACT,63.0,,63kV,OFFICIAL,,,,RTE,,Val-de-Marne,,Poste de transformation,traction,way_100212217,1.0,,BREV7,,MISSING,2025-12-13T02:56:37.469440,
RTE_BXBRE,BEAUBREUIL,TX,RTE_ODRE,45.8618286,1.2809321,OSM,EXACT,90.0,,90kV,OFFICIAL,,,,RTE,,Haute-Vienne,,Poste de transformation,distribution,way_95532056,0.9,,BXBRE,,MISSING,2025-12-13T02:56:37.469444,
RTE_C.FO6,CAILLOUX-SUR-FONTAINES,TX,RTE_ODRE,45.8651501,4.8989313,OSM,EXACT,225.0,,225kV,OFFICIAL,,,,RTE,,Rhône,,Poste de transformation,transmission,way_96082284,0.9,,C.FO6,,MISSING,2025-12-13T02:56:37.469447,
RTE_C.HUI,CONDE-SUR-HUISNE,TX,RTE_ODRE,48.3868801,0.8535782,OSM,EXACT,90.0,,90kV,OFFICIAL,,,,RTE,,Orne,,Poste de transformation,traction,way_178762386,0.9,,C.HUI,,MISSING,2025-12-13T02:56:37.469463,
RTE_C.LAF,CHARLES-LAFFITTE,TX,RTE_ODRE,47.7498121,7.3679388,OSM,EXACT,90.0,,90kV,OFFICIAL,,,,RTE,,,,Poste de transformation,minor_distribution,way_186089080,0.9,,C.LAF,,MISSING,2025-12-13T02:56:37.469467,
RTE_C.REG,CHAMPS-REGNAUD,TX,RTE_ODRE,47.3526841,5.0599218,OSM,EXACT,225.0,,225kV,OFFICIAL,,,,RTE,,Côte-d'Or,,Poste de transformation,transmission,way_122061929,0.9,,C.REG,,MISSING,2025-12-13T02:56:37.469471,
RTE_C.ROI,CHOISY-LE-ROI,TX,RTE_ODRE,48.7724505,2.408195,OSM,EXACT,63.0,,63kV,OFFICIAL,,,,RTE,,Val-de-Marne,,Poste de transformation,distribution,way_491948658,0.9,,C.ROI,,MISSING,2025-12-13T02:56:37.469475,
RTE_CANCO,CANCON,TX,RTE_ODRE,,,MISSING,MISSING,63.0,,63kV,OFFICIAL,,,,RTE,,Lot-et-Garonne,,Poste de transformation,,,,,CANCO,,MISSING,2025-12-13T02:56:37.469478,
RTE_CHAG5,CHAGNOT,TX,RTE_ODRE,,,MISSING,MISSING,90.0,,90kV,OFFICIAL,,,,RTE,,Cher,,Poste de transformation,,,,,CHAG5,,MISSING,2025-12-13T02:56:37.469483,
RTE_CHAL5,CHALON (S.N.C.F.),TX,RTE_ODRE,46.7629917,4.8610856,OSM,EXACT,63.0,,63kV,OFFICIAL,,,,RTE,,Saône-et-Loire,,Poste de transformation,transmission,way_122568639,0.9,,CHAL5,,MISSING,2025-12-13T02:56:37.469486,
RTE_CHAL6,CHALON (KODAK-PATHE),TX,RTE_ODRE,46.7629917,4.8610856,OSM,EXACT,63.0,,63kV,OFFICIAL,,,,RTE,,Saône-et-Loire,,Poste de transformation,transmission,way_122568639,0.9,,CHAL6,,MISSING,2025-12-13T02:56:37.469490,
RTE_CHAV5,CHAVAGNES,TX,RTE_ODRE,46.8697065,-1.2619114,OSM,EXACT,90.0,,90kV,OFFICIAL,,,,RTE,,Vendée,,Poste de transformation,distribution,way_179978382,1.0,,CHAV5,,MISSING,2025-12-13T02:56:37.469493,
RTE_CHED5,CHEDDE (S.N.C.F.),TX,RTE_ODRE,,,MISSING,MISSING,45.0,,45kV,OFFICIAL,,,,RTE,,Haute-Savoie,,Poste de transformation,,,,,CHED5,,MISSING,2025-12-13T02:56:37.469496,
RTE_COISE,COISELET,TX,RTE_ODRE,,,MISSING,MISSING,63.0,,63kV,OFFICIAL,,,,RTE,,Jura,,Poste de transformation,,,,,COISE,,MISSING,2025-12-13T02:56:37.469500,
RTE_CONTA,CONTAMINE,TX,RTE_ODRE,45.9723418,6.387337,OSM,EXACT,225.0,,225kV,OFFICIAL,,,,RTE,,Savoie,,Poste de transformation,minor_distribution,node_3732312395,1.0,,CONTA,,MISSING,2025-12-13T02:56:37.469503,
RTE_CORB7,CORBEIL,TX,RTE_ODRE,,,MISSING,MISSING,63.0,,63kV,OFFICIAL,,,,RTE,,Essonne,,Poste de transformation,,,,,CORB7,,MISSING,2025-12-13T02:56:37.469507,
RTE_CORB9,CORBIGNY,TX,RTE_ODRE,,,MISSING,MISSING,63.0,,63kV,OFFICIAL,,,,RTE,,Nièvre,,Poste de transformation,,,,,CORB9,,MISSING,2025-12-13T02:56:37.469510,
RTE_COTE,COTE (LA),TX,RTE_ODRE,,,MISSING,MISSING,90.0,,90kV,OFFICIAL,,,,RTE,,Creuse,,Poste de transformation,,,,,COTE,,MISSING,2025-12-13T02:56:37.469513,
RTE_COTON,COTONI,TX,RTE_ODRE,49.3705085,1.1082291,OSM,EXACT,90.0,,90kV,OFFICIAL,,,,RTE,,Seine-Maritime,,Poste de transformation,transmission,way_166621362,0.9,,COTON,,MISSING,2025-12-13T02:56:37.469519,
RTE_COUR,COUR (LA),TX,RTE_ODRE,,,MISSING,MISSING,90.0,,90kV,OFFICIAL,,,,RTE,,Vienne,,Poste de transformation,,,,,COUR,,MISSING,2025-12-13T02:56:37.469523,
RTE_CPBLA,CHAMPBLAIN,TX,RTE_ODRE,45.2170398,4.812158,OSM,EXACT,225.0,,225kV,OFFICIAL,,,,RTE,,Ardèche,,Poste de transformation,industrial,way_129221790,0.9,,CPBLA,,MISSING,2025-12-13T02:56:37.469527,
RTE_CREMA,CREMADES,TX,RTE_ODRE,,,MISSING,MISSING,63.0,,63kV,OFFICIAL,,,,RTE,,Vaucluse,,Poste de transformation,,,,,CREMA,,MISSING,2025-12-13T02:56:37.469530,
RTE_CROI6,CROISIERE,TX,RTE_ODRE,44.2710062,4.6975759,OSM,EXACT,225.0,,225kV,OFFICIAL,,,,RTE,,Gard,,Poste de transformation,traction,way_278718504,0.9,,CROI6,,MISSING,2025-12-13T02:56:37.469534,
RTE_CTAUD,CHATEAUDUN,TX,RTE_ODRE,46.1263072,3.4385075,OSM,EXACT,90.0,,90kV,OFFICIAL,,,,RTE,,Eure-et-Loir,,Poste de transformation,minor_distribution,way_243007459,1.0,,CTAUD,,MISSING,2025-12-13T02:56:37.469537,
RTE_CTAUR,CHATEAURENARD,TX,RTE_ODRE,43.86425,4.8568643,OSM,EXACT,225.0,,225kV,OFFICIAL,,,,RTE,,Bouches-du-Rhône,,Poste de transformation,transmission,way_135282004,0.9,,CTAUR,,MISSING,2025-12-13T02:56:37.469542,
RTE_CTLAR,CHATELARD (LE),TX,RTE_ODRE,45.1510936,4.3545094,OSM,EXACT,45.0,,45kV,OFFICIAL,,,,RTE,,Savoie,,Poste de transformation,minor_distribution,node_5697132216,0.9,,CTLAR,,MISSING,2025-12-13T02:56:37.469546,
RTE_CXMO5,CHAUMONT,TX,RTE_ODRE,48.8754875,2.3762181,OSM,EXACT,63.0,,63kV,OFFICIAL,,,,RTE,,Haute-Marne,,Poste de transformation,distribution,way_63213632,0.9,,CXMO5,,MISSING,2025-12-13T02:56:37.469549,
RTE_CXMON,CHAUMONT (CHASSENEUIL-DU-POITOU),TX,RTE_ODRE,46.6317371,0.3591442,OSM,EXACT,90.0,,90kV,OFFICIAL,,,,RTE,,Vienne,,Poste de transformation,transmission,way_116475790,0.9,,CXMON,,MISSING,2025-12-13T02:56:37.469553,
RTE_DAMBR,DAMBRON,TX,RTE_ODRE,48.1067677,1.8558404,OSM,EXACT,400.0,,400kV,OFFICIAL,,,,RTE,,Eure-et-Loir,,Poste de transformation,transmission,way_86260748,0.9,,DAMBR,,MISSING,2025-12-13T02:56:37.469557,
RTE_DIEUL,DIEULEFIT,TX,RTE_ODRE,,,MISSING,MISSING,63.0,,63kV,OFFICIAL,,,,RTE,,Drôme,,Poste de transformation,,,,,DIEUL,,MISSING,2025-12-13T02:56:37.469560,
RTE_DOMPI,DOMPIERRE,TX,RTE_ODRE,46.5164292,3.6923002,OSM,EXACT,63.0,,63kV,OFFICIAL,,,,RTE,,Allier,,Poste de transformation,transmission,way_137414494,1.0,,DOMPI,,MISSING,2025-12-13T02:56:37.469563,
RTE_DURAN,DURANNE (LA),TX,RTE_ODRE,,,MISSING,MISSING,225.0,,225kV,OFFICIAL,,,,RTE,,Bouches-du-Rhône,,Poste de transformation,,,,,DURAN,,MISSING,2025-12-13T02:56:37.469567,
RTE_DUROL,DUROLLE,TX,RTE_ODRE,,,MISSING,MISSING,63.0,,63kV,OFFICIAL,,,,RTE,,Puy-de-Dôme,,Poste de transformation,,,,,DUROL,,MISSING,2025-12-13T02:56:37.469571,
RTE_ENTRE,ENTREVAUX,TX,RTE_ODRE,,,MISSING,MISSING,150.0,,150kV,OFFICIAL,,,,RTE,,Alpes-de-Haute-Provence,,Poste de transformation,,,,,ENTRE,,MISSING,2025-12-13T02:56:37.469580,
RTE_EPIN5,EPINAY-SOUS-SENART,TX,RTE_ODRE,,,MISSING,MISSING,63.0,,63kV,OFFICIAL,,,,RTE,,Essonne,,Poste de transformation,,,,,EPIN5,,MISSING,2025-12-13T02:56:37.469583,
RTE_ESPAL,ESPALUNGUE,TX,RTE_ODRE,42.9812909,-0.4162522,OSM,EXACT,63.0,,63kV,OFFICIAL,,,,RTE,,Pyrénées-Atlantiques,,Poste de transformation,generation,way_741766116,0.9,,ESPAL,,MISSING,2025-12-13T02:56:37.469587,
RTE_ESPI5,ESPIERS (LES),TX,RTE_ODRE,,,MISSING,MISSING,225.0,,225kV,OFFICIAL,,,,RTE,,Eure-et-Loir,,Poste de transformation,,,,,ESPI5,,MISSING,2025-12-13T02:56:37.469591,
RTE_EUROP,EUROPORT,TX,RTE_ODRE,,,MISSING,MISSING,90.0,,90kV,OFFICIAL,,,,RTE,,Marne,,Poste de transformation,,,,,EUROP,,MISSING,2025-12-13T02:56:37.469595,
RTE_FLOGN,FLOGNY,TX,RTE_ODRE,,,MISSING,MISSING,63.0,,63kV,OFFICIAL,,,,RTE,,Yonne,,Poste de transformation,,,,,FLOGN,,MISSING,2025-12-13T02:56:37.469598,
RTE_FRESN,FRESNAY,TX,RTE_ODRE,48.2999028,0.0211452,OSM,EXACT,90.0,,90kV,OFFICIAL,,,,RTE,,Sarthe,,Poste de transformation,yes,way_169645725,0.9,,FRESN,,MISSING,2025-12-13T02:56:37.469601,
RTE_FTAIN,FONTAINES (S.N.C.F.),TX,RTE_ODRE,48.7519813,2.3498538,OSM,EXACT,63.0,,63kV,OFFICIAL,,,,RTE,,Saône-et-Loire,,Poste de transformation,minor_distribution,way_126143926,0.9,,FTAIN,,MISSING,2025-12-13T02:56:37.469605,
RTE_FUSTE,FUSTEL,TX,RTE_ODRE,48.5750382,7.7512996,OSM,EXACT,63.0,,63kV,OFFICIAL,,,,RTE,,Bas-Rhin,,Poste de transformation,distribution,way_40582732,0.9,,FUSTE,,MISSING,2025-12-13T02:56:37.469608,
RTE_GANGE,GANGES,TX,RTE_ODRE,43.9458667,3.7242428,OSM,EXACT,225.0,,225kV,OFFICIAL,,,,RTE,,Gard,,Poste de transformation,transmission,way_121087628,0.9,,GANGE,,MISSING,2025-12-13T02:56:37.469611,
RTE_GAUDI,GAUDIERE (LA),TX,RTE_ODRE,,,MISSING,MISSING,400.0,,400kV,OFFICIAL,,,,RTE,,Aude,,Poste de transformation,,,,,GAUDI,,MISSING,2025-12-13T02:56:37.469615,
RTE_GERE,GERE,TX,RTE_ODRE,,,MISSING,MISSING,63.0,,63kV,OFFICIAL,,,,RTE,,Rhône,,Poste de transformation,,,,,GERE,,MISSING,2025-12-13T02:56:37.469619,
RTE_GESSE,GESSE,TX,RTE_ODRE,42.7743584,2.1653702,OSM,EXACT,63.0,,63kV,OFFICIAL,,,,RTE,,Aude,,Poste de transformation,transmission,way_1236930261,0.9,,GESSE,,MISSING,2025-12-13T02:56:37.469623,
RTE_GUITA,GUITAYNE,TX,RTE_ODRE,44.7625665,-0.6678651,OSM,EXACT,63.0,,63kV,OFFICIAL,,,,RTE,,Gironde,,Poste de transformation,,way_222545697,0.9,,GUITA,,MISSING,2025-12-13T02:56:37.469626,
RTE_GUNDE,GUNDERSHOFFEN,TX,RTE_ODRE,,,MISSING,MISSING,63.0,,63kV,OFFICIAL,,,,RTE,,Bas-Rhin,,Poste de transformation,,,,,GUNDE,,MISSING,2025-12-13T02:56:37.469629,
RTE_HAUT5,HAUTELUCE,TX,RTE_ODRE,,,MISSING,MISSING,45.0,,45kV,OFFICIAL,,,,RTE,,Savoie,,Poste de transformation,,,,,HAUT5,,MISSING,2025-12-13T02:56:37.469633,
RTE_HERBI,HERBIERS (LES),TX,RTE_ODRE,,,MISSING,MISSING,90.0,,90kV,OFFICIAL,,,,RTE,,Vendée,,Poste de transformation,,,,,HERBI,,MISSING,2025-12-13T02:56:37.469636,
RTE_JANE,JANE,TX,RTE_ODRE,48.7782636,2.4285639,OSM,EXACT,63.0,,63kV,OFFICIAL,,,,RTE,,Bouches-du-Rhône,,Poste de transformation,minor_distribution,node_7283503120,1.0,,JANE,,MISSING,2025-12-13T02:56:37.469640,
RTE_JEUXE,JEUXEY,TX,RTE_ODRE,48.1888108,6.4880835,OSM,EXACT,225.0,,225kV,OFFICIAL,,,,RTE,,Vosges,,Poste de transformation,transmission,way_121024004,0.9,,JEUXE,,MISSING,2025-12-13T02:56:37.469643,
RTE_JOUQU,JOUQUES,TX,RTE_ODRE,,,MISSING,MISSING,63.0,,63kV,OFFICIAL,,,,RTE,,Vaucluse,,Poste de transformation,,,,,JOUQU,,MISSING,2025-12-13T02:56:37.469647,
RTE_L.MON,LAURAC-MONTREAL,TX,RTE_ODRE,42.814828,0.289235,OSM,EXACT,63.0,,63kV,OFFICIAL,,,,RTE,,Ardèche,,Poste de transformation,minor_distribution,node_1845269421,0.9,,L.MON,,MISSING,2025-12-13T02:56:37.469650,
RTE_L.VIE,LUNEL-VIEL,TX,RTE_ODRE,43.6805053,4.0887269,OSM,EXACT,63.0,,63kV,OFFICIAL,,,,RTE,,Hérault,,Poste de transformation,distribution,way_142676085,0.9,,L.VIE,,MISSING,2025-12-13T02:56:37.469654,
RTE_LACQ,LACQ (S.N.C.F.),TX,RTE_ODRE,,,MISSING,MISSING,63.0,,63kV,OFFICIAL,,,,RTE,,Pyrénées-Atlantiques,,Poste de transformation,,,,,LACQ,,MISSING,2025-12-13T02:56:37.469657,
RTE_LAFIG,LAFIGERE,TX,RTE_ODRE,,,MISSING,MISSING,225.0,,225kV,OFFICIAL,,,,RTE,,Lozère,,Poste de transformation,,,,,LAFIG,,MISSING,2025-12-13T02:56:37.469661,
RTE_LAUTE,LAUTERBOURG,TX,RTE_ODRE,,,MISSING,MISSING,63.0,,63kV,OFFICIAL,,,,RTE,,Bas-Rhin,,Poste de transformation,,,,,LAUTE,,MISSING,2025-12-13T02:56:37.469664,
RTE_LAXOU,LAXOU,TX,RTE_ODRE,48.6943462,6.1217526,OSM,EXACT,63.0,,63kV,OFFICIAL,,,,RTE,,Meurthe-et-Moselle,,Poste de transformation,,way_339580529,1.0,,LAXOU,,MISSING,2025-12-13T02:56:37.469667,
RTE_LISLO,LISLOCH,TX,RTE_ODRE,47.8519092,-3.5842979,OSM,EXACT,63.0,,63kV,OFFICIAL,,,,RTE,,Finistère,,Poste de transformation,distribution,way_337672993,0.9,,LISLO,,MISSING,2025-12-13T02:56:37.469670,
RTE_LONNY,LONNY,TX,RTE_ODRE,49.8274761,4.5728722,OSM,EXACT,400.0,,400kV,OFFICIAL,,,,RTE,,Ardennes,,Poste de transformation,transmission,way_82825438,0.9,,LONNY,,MISSING,2025-12-13T02:56:37.469674,
RTE_M.BL6,MONTAIGUT LE BLANC,TX,RTE_ODRE,45.7455615,6.2956625,OSM,EXACT,63.0,,63kV,OFFICIAL,,,,RTE,,Puy-de-Dôme,,Poste de transformation,minor_distribution,way_118333547,0.9,,M.BL6,,MISSING,2025-12-13T02:56:37.469678,
RTE_M.LOU,MARIE-LOUISE,TX,RTE_ODRE,47.8308409,7.2728323,OSM,EXACT,63.0,,63kV,OFFICIAL,,,,RTE,,Haut-Rhin,,Poste de transformation,,way_335813389,0.9,,M.LOU,,MISSING,2025-12-13T02:56:37.469681,
RTE_MAGNY,MAGNY(-SUR TILLE),TX,RTE_ODRE,,,MISSING,MISSING,225.0,,225kV,OFFICIAL,,,,RTE,,Côte-d'Or,,Poste de transformation,,,,,MAGNY,,MISSING,2025-12-13T02:56:37.469686,
RTE_MARIE,MARIENAU,TX,RTE_ODRE,49.1742367,6.8666308,OSM,EXACT,63.0,,63kV,OFFICIAL,,,,RTE,,,,Poste de transformation,distribution,way_136899252,0.9,,MARIE,,MISSING,2025-12-13T02:56:37.469690,
RTE_MAURS,MAURS,TX,RTE_ODRE,,,MISSING,MISSING,63.0,,63kV,OFFICIAL,,,,RTE,,Cantal,,Poste de transformation,,,,,MAURS,,MISSING,2025-12-13T02:56:37.469695,
RTE_MAZAR,MAZARGUES,TX,RTE_ODRE,43.2541327,5.4041225,OSM,EXACT,225.0,,225kV,OFFICIAL,,,,RTE,,,,Poste de transformation,distribution,way_733773951,0.9,,MAZAR,,MISSING,2025-12-13T02:56:37.469699,
RTE_MERCU,MERCUS,TX,RTE_ODRE,42.8781807,1.6273408,OSM,EXACT,63.0,,63kV,OFFICIAL,,,,RTE,,Ariège,,Poste de transformation,industrial,way_352407704,0.9,,MERCU,,MISSING,2025-12-13T02:56:37.469702,
RTE_METZ6,METZANGE,TX,RTE_ODRE,49.3613914,6.0997044,OSM,EXACT,63.0,,63kV,OFFICIAL,,,,RTE,,Moselle,,Poste de transformation,distribution,way_384043848,0.9,,METZ6,,MISSING,2025-12-13T02:56:37.469705,
RTE_MEYRA,MEYRARGUES,TX,RTE_ODRE,43.6437324,5.5137022,OSM,EXACT,63.0,,63kV,OFFICIAL,,,,RTE,,Bouches-du-Rhône,,Poste de transformation,transmission,way_88969659,0.9,,MEYRA,,MISSING,2025-12-13T02:56:37.469709,
RTE_MIRAI,MIRAIL (LE),TX,RTE_ODRE,44.5797015,-0.029903,OSM,EXACT,63.0,,63kV,OFFICIAL,,,,RTE,,Gironde,,Poste de transformation,,way_601835799,1.0,,MIRAI,,MISSING,2025-12-13T02:56:37.469714,
RTE_MORB5,MORBRAS (POSTE SOURCE),TX,RTE_ODRE,,,MISSING,MISSING,225.0,,225kV,OFFICIAL,,,,RTE,,Val-de-Marne,,Poste de transformation,,,,,MORB5,,MISSING,2025-12-13T02:56:37.469718,
RTE_MORIH,MORIHAN,TX,RTE_ODRE,47.9401521,-1.6400689,OSM,EXACT,225.0,,225kV,OFFICIAL,,,,RTE,,Ille-et-Vilaine,,Poste de transformation,transmission,way_177964767,0.9,,MORIH,,MISSING,2025-12-13T02:56:37.469721,
RTE_MOUL8,MOULINEAUX,TX,RTE_ODRE,48.8262775,2.2686049,OSM,EXACT,225.0,,225kV,OFFICIAL,,,,RTE,,Hauts-de-Seine,,Poste de transformation,transmission,way_658561056,0.9,,MOUL8,,MISSING,2025-12-13T02:56:37.469724,
RTE_MQIS,MARQUIS (LE),TX,RTE_ODRE,45.0052972,-0.5497532,OSM,EXACT,400.0,,400kV,OFFICIAL,,,,RTE,,Gironde,,Poste de transformation,,way_491111152,0.9,,MQIS,,MISSING,2025-12-13T02:56:37.469727,
RTE_MQIS5,MARQUIS (LE) (ENGRAIS D AMBES),TX,RTE_ODRE,45.0052972,-0.5497532,OSM,EXACT,63.0,,63kV,OFFICIAL,,,,RTE,,Gironde,,Poste de transformation,,way_491111152,1.0,,MQIS5,,MISSING,2025-12-13T02:56:37.469731,
RTE_MQISA,MARQUISANE (LA),TX,RTE_ODRE,,,MISSING,MISSING,63.0,,63kV,OFFICIAL,,,,RTE,,Var,,Poste de transformation,,,,,MQISA,,MISSING,2025-12-13T02:56:37.469734,
RTE_MTALI,MONTALIEU,TX,RTE_ODRE,45.8074137,5.4025212,OSM,EXACT,63.0,,63kV,OFFICIAL,,,,RTE,,Isère,,Poste de transformation,transmission,way_133763152,0.9,,MTALI,,MISSING,2025-12-13T02:56:37.469737,
RTE_MTEYN,MONTEYNARD,TX,RTE_ODRE,44.9641507,5.6852373,OSM,EXACT,225.0,,225kV,OFFICIAL,,,,RTE,,Isère,,Poste de transformation,transition,way_402057119,0.9,,MTEYN,,MISSING,2025-12-13T02:56:37.469742,
RTE_MTFO5,MONTFORT (BEDEE),TX,RTE_ODRE,,,MISSING,MISSING,90.0,,90kV,OFFICIAL,,,,RTE,,Ille-et-Vilaine,,Poste de transformation,,,,,MTFO5,,MISSING,2025-12-13T02:56:37.469746,
RTE_MTRIC,MONTRICHER,TX,RTE_ODRE,,,MISSING,MISSING,45.0,,45kV,OFFICIAL,,,,RTE,,Savoie,,Poste de transformation,,,,,MTRIC,,MISSING,2025-12-13T02:56:37.469750,
RTE_MTTES,MONTTESSUY,TX,RTE_ODRE,,,MISSING,MISSING,63.0,,63kV,OFFICIAL,,,,RTE,,Paris,,Poste de transformation,,,,,MTTES,,MISSING,2025-12-13T02:56:37.469753,
RTE_NAVES,NAVES,TX,RTE_ODRE,,,MISSING,MISSING,90.0,,90kV,OFFICIAL,,,,RTE,,Corrèze,,Poste de transformation,,,,,NAVES,,MISSING,2025-12-13T02:56:37.469756,
RTE_NEY,NEY,TX,RTE_ODRE,48.8975632,2.3479833,OSM,EXACT,225.0,,225kV,OFFICIAL,,,,RTE,,Hauts-de-Seine,,Poste de transformation,traction,way_49338373,0.9,,NEY,,MISSING,2025-12-13T02:56:37.469761,
RTE_NOVIL,NOVILLARS,TX,RTE_ODRE,,,MISSING,MISSING,63.0,,63kV,OFFICIAL,,,,RTE,,Doubs,,Poste de transformation,,,,,NOVIL,,MISSING,2025-12-13T02:56:37.469766,
RTE_ORANG,ORANGERIE (L),TX,RTE_ODRE,,,MISSING,MISSING,225.0,,225kV,OFFICIAL,,,,RTE,,Vienne,,Poste de transformation,,,,,ORANG,,MISSING,2025-12-13T02:56:37.469771,
RTE_P.ABB,PONT-L ABBE,TX,RTE_ODRE,45.1811025,3.0558347,OSM,EXACT,63.0,,63kV,OFFICIAL,,,,RTE,,Finistère,,Poste de transformation,minor_distribution,node_2509899490,0.9,,P.ABB,,MISSING,2025-12-13T02:56:37.469775,
RTE_P.FOR,PETITE-FORET,TX,RTE_ODRE,47.9450787,1.9309196,OSM,EXACT,63.0,,63kV,OFFICIAL,,,,RTE,,Nord,,Poste de transformation,minor_distribution,way_246976687,0.9,,P.FOR,,MISSING,2025-12-13T02:56:37.469778,
RTE_P.RO5,PEAGE-DE-ROUSSILLON-NORD,TX,RTE_ODRE,43.966428,4.1231996,OSM,EXACT,63.0,,63kV,OFFICIAL,,,,RTE,,Loire,,Poste de transformation,minor_distribution,node_7578251774,0.9,,P.RO5,,MISSING,2025-12-13T02:56:37.469782,
RTE_P.SAO,POUILLY-SUR-SAONE,TX,RTE_ODRE,47.0101205,5.1197522,OSM,EXACT,63.0,,63kV,OFFICIAL,,,,RTE,,Côte-d'Or,,Poste de transformation,,way_127720780,1.0,,P.SAO,,MISSING,2025-12-13T02:56:37.469785,
RTE_PERCH,PERCHE (LA),TX,RTE_ODRE,,,MISSING,MISSING,63.0,,63kV,OFFICIAL,,,,RTE,,Pyrénées-Orientales,,Poste de transformation,,,,,PERCH,,MISSING,2025-12-13T02:56:37.469788,
RTE_PINON,PINON,TX,RTE_ODRE,,,MISSING,MISSING,63.0,,63kV,OFFICIAL,,,,RTE,,Aisne,,Poste de transformation,,,,,PINON,,MISSING,2025-12-13T02:56:37.469792,
RTE_PORCH,PORCHEVILLE,TX,RTE_ODRE,48.971347,1.7625486,OSM,EXACT,225.0,,225kV,OFFICIAL,,,,RTE,,Yvelines,,Poste de transformation,transmission,way_89022080,0.9,,PORCH,,MISSING,2025-12-13T02:56:37.469799,
RTE_PTCH5,PONTCHARRA,TX,RTE_ODRE,,,MISSING,MISSING,63.0,,63kV,OFFICIAL,,,,RTE,,Isère,,Poste de transformation,,,,,PTCH5,,MISSING,2025-12-13T02:56:37.469805,
RTE_PURPA,PURPAN,TX,RTE_ODRE,43.6135947,1.3980038,OSM,EXACT,63.0,,63kV,OFFICIAL,,,,RTE,,Haute-Garonne,,Poste de transformation,industrial,way_599457742,0.9,,PURPA,,MISSING,2025-12-13T02:56:37.469808,
RTE_RAVEL,RAVELLE (LA),TX,RTE_ODRE,,,MISSING,MISSING,90.0,,90kV,OFFICIAL,,,,RTE,,Indre,,Poste de transformation,,,,,RAVEL,,MISSING,2025-12-13T02:56:37.469812,
RTE_RESOL,RESOLUT,TX,RTE_ODRE,,,MISSING,MISSING,63.0,,63kV,OFFICIAL,,,,RTE,,Landes,,Poste de transformation,,,,,RESOL,,MISSING,2025-12-13T02:56:37.469817,
RTE_ROMEL,ROMELET,TX,RTE_ODRE,47.280784,5.0391623,OSM,EXACT,63.0,,63kV,OFFICIAL,,,,RTE,,Côte-d'Or,,Poste de transformation,distribution,way_127367565,0.9,,ROMEL,,MISSING,2025-12-13T02:56:37.469827,
RTE_ROMEN,ROMENAY,TX,RTE_ODRE,46.5049314,5.050841,OSM,EXACT,63.0,,63kV,OFFICIAL,,,,RTE,,Ain,,Poste de transformation,,way_242627359,1.0,,ROMEN,,MISSING,2025-12-13T02:56:37.469831,
RTE_ROURE,ROURE,TX,RTE_ODRE,43.5493057,4.3993294,OSM,EXACT,63.0,,63kV,OFFICIAL,,,,RTE,,Gard,,Poste de transformation,distribution,way_183857171,0.9,,ROURE,,MISSING,2025-12-13T02:56:37.469835,
RTE_RUFFE,RUFFE,TX,RTE_ODRE,43.6857124,3.1784171,OSM,EXACT,63.0,,63kV,OFFICIAL,,,,RTE,,Hérault,,Poste de transformation,distribution,way_153272863,0.9,,RUFFE,,MISSING,2025-12-13T02:56:37.469838,
RTE_SABRA,SABRAN,TX,RTE_ODRE,44.1589734,4.5417364,OSM,EXACT,63.0,,63kV,OFFICIAL,,,,RTE,,Gard,,Poste de transformation,distribution,way_239366637,0.9,,SABRA,,MISSING,2025-12-13T02:56:37.469842,
RTE_SALET,SALETTES,TX,RTE_ODRE,45.1223805,4.2879912,OSM,EXACT,63.0,,63kV,OFFICIAL,,,,RTE,,Haute-Loire,,Poste de transformation,minor_distribution,node_5894947231,1.0,,SALET,,MISSING,2025-12-13T02:56:37.469845,
RTE_SALMO,SALMONPRE,TX,RTE_ODRE,,,MISSING,MISSING,63.0,,63kV,OFFICIAL,,,,RTE,,Meuse,,Poste de transformation,,,,,SALMO,,MISSING,2025-12-13T02:56:37.469849,
RTE_SAMOI,SAMOIS,TX,RTE_ODRE,,,MISSING,MISSING,63.0,,63kV,OFFICIAL,,,,RTE,,Seine-et-Marne,,Poste de transformation,,,,,SAMOI,,MISSING,2025-12-13T02:56:37.469853,
RTE_SSALA,STE-ALAUZIE,TX,RTE_ODRE,,,MISSING,MISSING,63.0,,63kV,OFFICIAL,,,,RTE,,Lot,,Poste de transformation,,,,,SSALA,,MISSING,2025-12-13T02:56:37.469857,
RTE_SSFL8,ST-FLOUR,TX,RTE_ODRE,,,MISSING,MISSING,63.0,,63kV,OFFICIAL,,,,RTE,,Cantal,,Poste de transformation,,,,,SSFL8,,MISSING,2025-12-13T02:56:37.469860,
RTE_SSLAC,STE-HELENE-DU-LAC,TX,RTE_ODRE,,,MISSING,MISSING,63.0,,63kV,OFFICIAL,,,,RTE,,Isère,,Poste de transformation,,,,,SSLAC,,MISSING,2025-12-13T02:56:37.469863,
RTE_SSMAM,ST-MAMMES,TX,RTE_ODRE,,,MISSING,MISSING,63.0,,63kV,OFFICIAL,,,,RTE,,Seine-et-Marne,,Poste de transformation,,,,,SSMAM,,MISSING,2025-12-13T02:56:37.469866,
RTE_SSMAX,STE-MAXENCE,TX,RTE_ODRE,,,MISSING,MISSING,63.0,,63kV,OFFICIAL,,,,RTE,,Oise,,Poste de transformation,,,,,SSMAX,,MISSING,2025-12-13T02:56:37.469876,
RTE_SSMO6,ST-PIERRE-LE-MOUTIER,TX,RTE_ODRE,43.6975939,7.0019901,OSM,EXACT,63.0,,63kV,OFFICIAL,,,,RTE,,Nièvre,,Poste de transformation,,way_1031016611,0.9,,SSMO6,,MISSING,2025-12-13T02:56:37.469879,
RTE_SSMRI,ST-MAURICE,TX,RTE_ODRE,45.9648306,4.0100421,OSM,EXACT,63.0,,63kV,OFFICIAL,,,,RTE,,Hautes-Alpes,,Poste de transformation,,node_2928082503,0.9,,SSMRI,,MISSING,2025-12-13T02:56:37.469882,
RTE_SSSA7,ST-SAUVEUR (CLIENT),TX,RTE_ODRE,,,MISSING,MISSING,63.0,,63kV,OFFICIAL,,,,RTE,,Lozère,,Poste de transformation,,,,,SSSA7,,MISSING,2025-12-13T02:56:37.469886,
RTE_SSSER,ST-SERNIN,TX,RTE_ODRE,,,MISSING,MISSING,63.0,,63kV,OFFICIAL,,,,RTE,,Haute-Garonne,,Poste de transformation,,,,,SSSER,,MISSING,2025-12-13T02:56:37.469889,
RTE_SSVAU,ST-PARRES-LES-VAUDES,TX,RTE_ODRE,,,MISSING,MISSING,63.0,,63kV,OFFICIAL,,,,RTE,,Aube,,Poste de transformation,,,,,SSVAU,,MISSING,2025-12-13T02:56:37.469893,
RTE_SSVI6,ST-MARTIN-LE-VIEUX,TX,RTE_ODRE,45.1684803,4.4157859,OSM,EXACT,90.0,,90kV,OFFICIAL,,,,RTE,,Haute-Vienne,,Poste de transformation,minor_distribution,node_5770405663,0.9,,SSVI6,,MISSING,2025-12-13T02:56:37.469896,
RTE_STEAM,STEAM (H.B.L.),TX,RTE_ODRE,,,MISSING,MISSING,63.0,,63kV,OFFICIAL,,,,RTE,,Moselle,,Poste de transformation,,,,,STEAM,,MISSING,2025-12-13T02:56:37.469899,
RTE_SUISS,SUISSES (LES),TX,RTE_ODRE,,,MISSING,MISSING,63.0,,63kV,OFFICIAL,,,,RTE,,Hauts-de-Seine,,Poste de transformation,,,,,SUISS,,MISSING,2025-12-13T02:56:37.469903,
RTE_T.CHA,TONNAY-CHARENTE,TX,RTE_ODRE,45.9504083,-0.9231785,OSM,EXACT,90.0,,90kV,OFFICIAL,,,,RTE,,Charente-Maritime,,Poste de transformation,,way_155194737,0.9,,T.CHA,,MISSING,2025-12-13T02:56:37.469907,
RTE_T.CRA,TERMINAL DE LA CRAU,TX,RTE_ODRE,,,MISSING,MISSING,63.0,,63kV,OFFICIAL,,,,RTE,,Bouches-du-Rhône,,Poste de transformation,,,,,T.CRA,,MISSING,2025-12-13T02:56:37.469911,
RTE_TECH5,TECHNOCENTRE,TX,RTE_ODRE,48.7570339,2.0820051,OSM,EXACT,63.0,,63kV,OFFICIAL,,,,RTE,,Yvelines,,Poste de transformation,industrial,way_823872756,0.9,,TECH5,,MISSING,2025-12-13T02:56:37.469914,
RTE_TEMP6,TEMPLE (LE)(CLIENT),TX,RTE_ODRE,48.893779,2.4130241,OSM,EXACT,45.0,,45kV,OFFICIAL,,,,RTE,,Savoie,,Poste de transformation,minor_distribution,node_7178216011,0.9,,TEMP6,,MISSING,2025-12-13T02:56:37.469917,
RTE_TENDR,TENDRECOURT,TX,RTE_ODRE,49.7347529,4.8409408,OSM,EXACT,63.0,,63kV,OFFICIAL,,,,RTE,,Ardennes,,Poste de transformation,distribution,way_309255400,0.9,,TENDR,,MISSING,2025-12-13T02:56:37.469920,
RTE_TERNO,TERNOISE,TX,RTE_ODRE,,,MISSING,MISSING,90.0,,90kV,OFFICIAL,,,,RTE,,Pas-de-Calais,,Poste de transformation,,,,,TERNO,,MISSING,2025-12-13T02:56:37.469926,
RTE_TERR6,TERRETTE,TX,RTE_ODRE,49.1613608,-1.1875148,OSM,EXACT,400.0,,400kV,OFFICIAL,,,,RTE,,Manche,,Poste de transformation,transmission,way_85867971,0.9,,TERR6,,MISSING,2025-12-13T02:56:37.469929,
RTE_THIO6,THIONVILLE (USINOR ACIERIES),TX,RTE_ODRE,,,MISSING,MISSING,63.0,,63kV,OFFICIAL,,,,RTE,,Moselle,,Poste de transformation,,,,,THIO6,,MISSING,2025-12-13T02:56:37.469932,
RTE_THIOT,THIOT,TX,RTE_ODRE,48.7582779,-0.0436798,OSM,EXACT,225.0,,225kV,OFFICIAL,,,,RTE,,Orne,,Poste de transformation,transmission,way_147581004,0.9,,THIOT,,MISSING,2025-12-13T02:56:37.469936,
RTE_V.BAR,VENDEUVRE-SUR-BARSE,TX,RTE_ODRE,,,MISSING,MISSING,63.0,,63kV,OFFICIAL,,,,RTE,,Aube,,Poste de transformation,,,,,V.BAR,,MISSING,2025-12-13T02:56:37.469939,
RTE_V.BEN,VAL-BENEYTE,TX,RTE_ODRE,49.0754241,1.9996081,OSM,EXACT,90.0,,90kV,OFFICIAL,,,,RTE,,Corrèze,,Poste de transformation,minor_distribution,way_485348202,0.9,,V.BEN,,MISSING,2025-12-13T02:56:37.469944,
RTE_V.ISE,VAL-D ISERE,TX,RTE_ODRE,49.0754241,1.9996081,OSM,EXACT,63.0,,63kV,OFFICIAL,,,,RTE,,Savoie,,Poste de transformation,minor_distribution,way_485348202,0.9,,V.ISE,,MISSING,2025-12-13T02:56:37.469948,
RTE_VALI5,VALIN,TX,RTE_ODRE,,,MISSING,MISSING,63.0,,63kV,OFFICIAL,,,,RTE,,Bouches-du-Rhône,,Poste de transformation,,,,,VALI5,,MISSING,2025-12-13T02:56:37.469951,
RTE_VEN.P,VENTHON-POSTE,TX,RTE_ODRE,45.6934949,6.4034018,OSM,EXACT,225.0,,225kV,OFFICIAL,,,,RTE,,Savoie,,Poste de transformation,,way_368838185,0.9,,VEN.P,,MISSING,2025-12-13T02:56:37.469955,
RTE_VERFE,VERFEIL,TX,RTE_ODRE,43.6293588,1.6722007,OSM,EXACT,400.0,,400kV,OFFICIAL,,,,RTE,,Haute-Garonne,,Poste de transformation,transmission,way_109817708,0.9,,VERFE,,MISSING,2025-12-13T02:56:37.469958,
RTE_VIBRA,VIBRAYE,TX,RTE_ODRE,,,MISSING,MISSING,90.0,,90kV,OFFICIAL,,,,RTE,,Sarthe,,Poste de transformation,,,,,VIBRA,,MISSING,2025-12-13T02:56:37.469962,
RTE_VLEME,VILLEMENT,TX,RTE_ODRE,46.9320965,1.9625594,OSM,EXACT,90.0,,90kV,OFFICIAL,,,,RTE,,Indre,,Poste de transformation,transmission,way_209877605,0.9,,VLEME,,MISSING,2025-12-13T02:56:37.469965,
RTE_WATTR,WATTRELOS,TX,RTE_ODRE,,,MISSING,MISSING,225.0,,225kV,OFFICIAL,,,,RTE,,Nord,,Poste de transformation,,,,,WATTR,,MISSING,2025-12-13T02:56:37.469968,
RTE_ZBATO,PIQUAGE A BATON,TX,RTE_ODRE,,,MISSING,MISSING,63.0,,63kV,OFFICIAL,,,,RTE,,Isère,,Point de piquage,,,,,ZBATO,,MISSING,2025-12-13T02:56:37.469971,
RTE_ZBRA5,PIQUAGE VIGUIER (LIAISON VALGRZ31VIGUI),TX,RTE_ODRE,,,MISSING,MISSING,63.0,,63kV,OFFICIAL,,,,RTE,,Aude,,Point de piquage,,,,,ZBRA5,,MISSING,2025-12-13T02:56:37.469975,
RTE_ZBUCH,SSJAM / C.FON COMM7 1,TX,RTE_ODRE,,,MISSING,MISSING,,,HORS TENSION,OFFICIAL,,,,RTE,,Sarthe,,Point de piquage,,,,,ZBUCH,,MISSING,2025-12-13T02:56:37.469981,
RTE_ZC.BA,C.BAR / G.ILE SSAL5 1,TX,RTE_ODRE,,,MISSING,MISSING,63.0,,63kV,OFFICIAL,,,,RTE,,Savoie,,Point de piquage,,,,,ZC.BA,,MISSING,2025-12-13T02:56:37.469984,
RTE_ZCATO,PIQUAGE CATOY (LIAISON COLAYZ31SSLIV),TX,RTE_ODRE,,,MISSING,MISSING,63.0,,63kV,OFFICIAL,,,,RTE,,Lot-et-Garonne,,Point de piquage,,,,,ZCATO,,MISSING,2025-12-13T02:56:37.469997,
RTE_ZCRUS,CRUSE / CORNI GEN.P 1,TX,RTE_ODRE,,,MISSING,MISSING,225.0,,225kV,OFFICIAL,,,,RTE,,Haute-Savoie,,Point de piquage,,,,,ZCRUS,,MISSING,2025-12-13T02:56:37.470001,
RTE_ZG.ME,PIQUAGE A LE GRAND-MEMENIER,TX,RTE_ODRE,,,MISSING,MISSING,90.0,,90kV,OFFICIAL,,,,RTE,,Ille-et-Vilaine,,Point de piquage,,,,,ZG.ME,,MISSING,2025-12-13T02:56:37.470005,
RTE_ZH.TO,PIQUAGE HAYANGE-TOURNEBRIDE,TX,RTE_ODRE,,,MISSING,MISSING,225.0,,225kV,OFFICIAL,,,,RTE,,Moselle,,Point de piquage,,,,,ZH.TO,,MISSING,2025-12-13T02:56:37.470009,
RTE_ZLEDE,LEDEN / THEZI UZES 1,TX,RTE_ODRE,,,MISSING,MISSING,63.0,,63kV,OFFICIAL,,,,RTE,,Gard,,Point de piquage,,,,,ZLEDE,,MISSING,2025-12-13T02:56:37.470015,
RTE_ZMIZO,MIZOE / OCHE SSGUI 1,TX,RTE_ODRE,,,MISSING,MISSING,63.0,,63kV,OFFICIAL,,,,RTE,,Isère,,Point de piquage,,,,,ZMIZO,,MISSING,2025-12-13T02:56:37.470019,
RTE_ZMOND,PIQUAGE A HEROUVILLE-SAINT-CLAIR,TX,RTE_ODRE,45.7409471,7.6197337,OSM,EXACT,,,HORS TENSION,OFFICIAL,,,,RTE,,Calvados,,Point de piquage,transmission,way_103127442,0.9,,ZMOND,,MISSING,2025-12-13T02:56:37.470023,
RTE_ZMORG,PIQUAGE LA MORGE,TX,RTE_ODRE,,,MISSING,MISSING,63.0,,63kV,OFFICIAL,,,,RTE,,Aube,,Point de piquage,,,,,ZMORG,,MISSING,2025-12-13T02:56:37.470026,
RTE_ZMTR6,PIQUAGE MONTREJEAU SNCF (LIAISON GOUR5Z31LANNE),TX,RTE_ODRE,44.138083,4.819391,OSM,EXACT,63.0,,63kV,OFFICIAL,,,,RTE,,Hautes-Pyrénées,,Point de piquage,,way_79075607,0.9,,ZMTR6,,MISSING,2025-12-13T02:56:37.470029,
RTE_ZPAST,PIQUAGE PASTOUREL LIAISON CSLN5Z31MTPEL,TX,RTE_ODRE,,,MISSING,MISSING,63.0,,63kV,OFFICIAL,,,,RTE,,Hérault,,Point de piquage,,,,,ZPAST,,MISSING,2025-12-13T02:56:37.470033,
RTE_ZRAN6,RANDE / ALBER LONG6 2,TX,RTE_ODRE,,,MISSING,MISSING,225.0,,225kV,OFFICIAL,,,,RTE,,Savoie,,Point de piquage,,,,,ZRAN6,,MISSING,2025-12-13T02:56:37.470036,
RTE_ZRIC5,PIQUAGE RICHEBOURG A RICHEBOURG (ZRIC5),TX,RTE_ODRE,46.6781572,5.5557017,OSM,EXACT,225.0,,225kV,OFFICIAL,,,,RTE,,Eure-et-Loir,,Point de piquage,minor_distribution,way_82839688,0.9,,ZRIC5,,MISSING,2025-12-13T02:56:37.470039,
RTE_ZS.SE,PIQUAGE SOMMER-SEDAN PYL 9,TX,RTE_ODRE,,,MISSING,MISSING,63.0,,63kV,OFFICIAL,,,,RTE,,Ardennes,,Point de piquage,,,,,ZS.SE,,MISSING,2025-12-13T02:56:37.470043,
RTE_ZSAR6,PIQUAGE SARREGUEMINES,TX,RTE_ODRE,,,MISSING,MISSING,225.0,,225kV,OFFICIAL,,,,RTE,,Moselle,,Point de piquage,,,,,ZSAR6,,MISSING,2025-12-13T02:56:37.470048,
RTE_ZSOL6,PIQUAGE A SOLLIES,TX,RTE_ODRE,,,MISSING,MISSING,63.0,,63kV,OFFICIAL,,,,RTE,,Var,,Point de piquage,,,,,ZSOL6,,MISSING,2025-12-13T02:56:37.470051,
RTE_ZSOU5,PIQUAGE SOULAC (LIAISON LESP5Z31SOULA),TX,RTE_ODRE,,,MISSING,MISSING,63.0,,63kV,OFFICIAL,,,,RTE,,,,Point de piquage,,,,,ZSOU5,,MISSING,2025-12-13T02:56:37.470055,
RTE_ZTANI,TANIN / MORZI PRESS 1,TX,RTE_ODRE,,,MISSING,MISSING,63.0,,63kV,OFFICIAL,,,,RTE,,Haute-Savoie,,Point de piquage,,,,,ZTANI,,MISSING,2025-12-13T02:56:37.470059,
RTE_ZTEM5,TEMP6 / LONG6 SAUS2 1,TX,RTE_ODRE,,,MISSING,MISSING,45.0,,45kV,OFFICIAL,,,,RTE,,Savoie,,Point de piquage,,,,,ZTEM5,,MISSING,2025-12-13T02:56:37.470063,
RTE_ZVAIL,VAILL / FORTA SANCE 1,TX,RTE_ODRE,,,MISSING,MISSING,63.0,,63kV,OFFICIAL,,,,RTE,,Cher,,Point de piquage,,,,,ZVAIL,,MISSING,2025-12-13T02:56:37.470066,
RTE_ZVIEV,PIQUAGE A SAINT-PHILBERT-SUR-RISLE,TX,RTE_ODRE,,,MISSING,MISSING,90.0,,90kV,OFFICIAL,,,,RTE,,Eure,,Point de piquage,,,,,ZVIEV,,MISSING,2025-12-13T02:56:37.470070,
RTE_THEVA,THEVALLES,TX,RTE_ODRE,,,MISSING,MISSING,90.0,,90kV,OFFICIAL,,,,RTE,,Mayenne,,Poste de transformation,,,,,THEVA,,MISSING,2025-12-13T02:56:37.470075,
RTE_COUFF,COUFFRAU,TX,RTE_ODRE,43.7302541,2.7961672,OSM,EXACT,225.0,,225kV,OFFICIAL,,,,RTE,,Aveyron,,Poste de transformation,transmission,way_378126683,0.9,,COUFF,,MISSING,2025-12-13T02:56:37.470078,
RTE_B.PAI,BOIS PAILLET (LE),TX,RTE_ODRE,,,MISSING,MISSING,90.0,,90kV,OFFICIAL,,,,RTE,,Eure-et-Loir,,Poste de transformation,,,,,B.PAI,,MISSING,2025-12-13T02:56:37.470081,
RTE_TOURR,TOURRETTES,TX,RTE_ODRE,,,MISSING,MISSING,63.0,,63kV,OFFICIAL,,,,RTE,,Var,,Poste de transformation,,,,,TOURR,,MISSING,2025-12-13T02:56:37.470085,
RTE_M.NIC,MESNIL-SAINT-NICAISE,TX,RTE_ODRE,48.6487784,2.2894693,OSM,EXACT,63.0,,63kV,OFFICIAL,,,,RTE,,Somme,,Poste de transformation,,node_11842393767,0.9,,M.NIC,,MISSING,2025-12-13T02:56:37.470088,
RTE_JALAN,JALANCOURT (RINGO),TX,RTE_ODRE,,,MISSING,MISSING,63.0,,63kV,OFFICIAL,,,,RTE,,Côte-d'Or,,Poste de transformation,,,,,JALAN,,MISSING,2025-12-13T02:56:37.470091,
RTE_V.AUB,VILLETTE-SUR-AUBE,TX,RTE_ODRE,,,MISSING,MISSING,90.0,,90kV,OFFICIAL,,,,RTE,,Aube,,Poste de transformation,,,,,V.AUB,,MISSING,2025-12-13T02:56:37.470094,
RTE_TAUTE,TAUTE,TX,RTE_ODRE,49.2029235,-1.3613008,OSM,EXACT,400.0,,400kV,OFFICIAL,,,,RTE,,Manche,,Poste de transformation,transmission,way_222188543,0.9,,TAUTE,,MISSING,2025-12-13T02:56:37.470098,
RTE_C.DEN,CHAMPDENIERS-ST-DENIS,TX,RTE_ODRE,,,MISSING,MISSING,90.0,,90kV,OFFICIAL,,,,RTE,,Deux-Sèvres,,Poste de transformation,,,,,C.DEN,,MISSING,2025-12-13T02:56:37.470102,
RTE_G.RIV,GRANDES-RIVIERES,TX,RTE_ODRE,47.3066722,-2.1365867,OSM,EXACT,225.0,,225kV,OFFICIAL,,,,RTE,,Loire-Atlantique,,Poste de transformation,generation,way_545376170,0.9,,G.RIV,,MISSING,2025-12-13T02:56:37.470107,
RTE_ZC.OM,PIQUAGE A CRESSY-OMENCOURT,TX,RTE_ODRE,,,MISSING,MISSING,225.0,,225kV,OFFICIAL,,,,RTE,,Somme,,Point de piquage,,,,,ZC.OM,,MISSING,2025-12-13T02:56:37.470110,
RTE_PRINQ,PRINQUIAU,TX,RTE_ODRE,,,MISSING,MISSING,225.0,,225kV,OFFICIAL,,,,RTE,,Loire-Atlantique,,Poste de transformation,,,,,PRINQ,,MISSING,2025-12-13T02:56:37.470113,
RTE_ZV.LI,PIQUAGE A LA VALLEE AUX LIEVRES,TX,RTE_ODRE,45.1125504,4.3019577,OSM,EXACT,63.0,,63kV,OFFICIAL,,,,RTE,,Eure,,Point de piquage,minor_distribution,node_5903904732,0.9,,ZV.LI,,MISSING,2025-12-13T02:56:37.470117,
RTE_ZSS11,PIQUAGE A SAINT-GERAUD-DE-CORPS,TX,RTE_ODRE,,,MISSING,MISSING,225.0,,225kV,OFFICIAL,,,,RTE,,Dordogne,,Point de piquage,,,,,ZSS11,,MISSING,2025-12-13T02:56:37.470120,
RTE_A.BOU,ANDREZIEUX-BOUTHEON,TX,RTE_ODRE,45.5333747,4.3059759,OSM,EXACT,63.0,,63kV,OFFICIAL,,,,RTE,,Loire,,Poste de transformation,industrial,way_823662698,0.9,,A.BOU,,MISSING,2025-12-13T02:56:37.470124,
RTE_GARRI,GARRIGOU,TX,RTE_ODRE,43.6268208,2.8217284,OSM,EXACT,225.0,,225kV,OFFICIAL,,,,RTE,,Tarn,,Poste de transformation,generation,way_1091109862,0.9,,GARRI,,MISSING,2025-12-13T02:56:37.470127,
RTE_VICOG,VICOGNE (LA),TX,RTE_ODRE,,,MISSING,MISSING,225.0,,225kV,OFFICIAL,,,,RTE,,Somme,,Poste de transformation,,,,,VICOG,,MISSING,2025-12-13T02:56:37.470131,
RTE_CHARR,CHARRAUT (LE),TX,RTE_ODRE,,,MISSING,MISSING,90.0,,90kV,OFFICIAL,,,,RTE,,Vienne,,Poste de transformation,,,,,CHARR,,MISSING,2025-12-13T02:56:37.470134,
RTE_P.BOI,PETIT-BOIS (LE),TX,RTE_ODRE,46.1547536,-1.3243745,OSM,EXACT,225.0,,225kV,OFFICIAL,,,,RTE,,Essonne,,Poste de transformation,minor_distribution,way_593177664,0.9,,P.BOI,,MISSING,2025-12-13T02:56:37.470137,
RTE_.PIOS,PIOSSASCO,TX,RTE_ODRE,44.9702805,7.4417339,OSM,EXACT,,,COURANT CONTINU,OFFICIAL,,,,RTE,,Savoie,,Poste de transformation,transmission,way_98902899,1.0,,.PIOS,,MISSING,2025-12-13T02:56:37.470143,
RTE_ZCH10,PIQUAGE A CHARRON,TX,RTE_ODRE,46.0677703,6.4418775,OSM,EXACT,90.0,,90kV,OFFICIAL,,,,RTE,,Charente-Maritime,,Point de piquage,minor_distribution,node_3748612731,0.9,,ZCH10,,MISSING,2025-12-13T02:56:37.470147,
RTE_ZGARR,PIQUAGE A GARRIGOU,TX,RTE_ODRE,,,MISSING,MISSING,225.0,,225kV,OFFICIAL,,,,RTE,,Tarn,,Point de piquage,,,,,ZGARR,,MISSING,2025-12-13T02:56:37.470150,
RTE_VIGNE,VIGNE (LA),TX,RTE_ODRE,48.7312978,2.2334762,OSM,EXACT,225.0,,225kV,OFFICIAL,,,,RTE,,Yonne,,Poste de transformation,,node_6291762077,0.9,,VIGNE,,MISSING,2025-12-13T02:56:37.470153,
RTE_ZT.RO,PIQUAGE A TOURZEL-RONZIERES,TX,RTE_ODRE,,,MISSING,MISSING,63.0,,63kV,OFFICIAL,,,,RTE,,Puy-de-Dôme,,Point de piquage,,,,,ZT.RO,,MISSING,2025-12-13T02:56:37.470158,
RTE_ZSAB5,PIQUAGE A SABLONNIERES (LES),TX,RTE_ODRE,47.9298788,1.8877458,OSM,EXACT,63.0,,63kV,OFFICIAL,,,,RTE,,Nord,,Point de piquage,minor_distribution,way_68414281,0.9,,ZSAB5,,MISSING,2025-12-13T02:56:37.470163,
RTE_SCIER,SCIERIE (LA),TX,RTE_ODRE,45.2753951,4.30355,OSM,EXACT,225.0,,225kV,OFFICIAL,,,,RTE,,Pyrénées-Atlantiques,,Poste de transformation,minor_distribution,node_6145826375,0.9,,SCIER,,MISSING,2025-12-13T02:56:37.470166,
RTE_ZS.SO,PIQUAGE A SANS-SOUCI,TX,RTE_ODRE,,,MISSING,MISSING,63.0,,63kV,OFFICIAL,,,,RTE,,Haute-Garonne,,Point de piquage,,,,,ZS.SO,,MISSING,2025-12-13T02:56:37.470170,
RTE_ZP.IL,PIQUAGE AUX PETITES ILES,TX,RTE_ODRE,,,MISSING,MISSING,225.0,,225kV,OFFICIAL,,,,RTE,,Isère,,Point de piquage,,,,,ZP.IL,,MISSING,2025-12-13T02:56:37.470173,
RTE_LOUD8,LOUDENVIELLE (PRODUCTION),TX,RTE_ODRE,,,MISSING,MISSING,63.0,,63kV,OFFICIAL,,,,RTE,,Hautes-Pyrénées,,Poste de transformation,,,,,LOUD8,,MISSING,2025-12-13T02:56:37.470177,
RTE_ZT.SS,PIQUAGE AUX TERRES-ST-ANTOINE,TX,RTE_ODRE,49.100897,-1.60229,OSM,EXACT,63.0,,63kV,OFFICIAL,,,,RTE,,Marne,,Point de piquage,minor_distribution,way_165062364,0.9,,ZT.SS,,MISSING,2025-12-13T02:56:37.470180,
RTE_ZLESS,PIQUAGE A LESSAY (EX ZCOU6),TX,RTE_ODRE,,,MISSING,MISSING,90.0,,90kV,OFFICIAL,,,,RTE,,Manche,,Point de piquage,,,,,ZLESS,,MISSING,2025-12-13T02:56:37.470183,
RTE_B.THO,BARRE-THOMAS (LA),TX,RTE_ODRE,,,MISSING,MISSING,90.0,,90kV,OFFICIAL,,,,RTE,,Ille-et-Vilaine,,Poste de transformation,,,,,B.THO,,MISSING,2025-12-13T02:56:37.470187,
RTE_1AMBI,AMBIALET /AVALATS 33KV,TX,RTE_ODRE,,,MISSING,MISSING,45.0,,<45kV,OFFICIAL,,,,RTE,,Tarn,,Poste de transformation,,,,,1AMBI,,MISSING,2025-12-13T02:56:37.470193,
RTE_A.DUC,ARNAY LE DUC,TX,RTE_ODRE,46.5385466,2.33851,OSM,EXACT,63.0,,63kV,OFFICIAL,,,,RTE,,Côte-d'Or,,Poste de transformation,,node_13132825381,0.9,,A.DUC,,MISSING,2025-12-13T02:56:37.470196,
RTE_A.NOR,ANCE-DU-NORD,TX,RTE_ODRE,43.966428,4.1231996,OSM,EXACT,63.0,,63kV,OFFICIAL,,,,RTE,,Haute-Loire,,Poste de transformation,minor_distribution,node_7578251774,0.9,,A.NOR,,MISSING,2025-12-13T02:56:37.470202,
RTE_ALIZA,ALIZAY,TX,RTE_ODRE,,,MISSING,MISSING,90.0,,90kV,OFFICIAL,,,,RTE,,Seine-Maritime,,Poste de transformation,,,,,ALIZA,,MISSING,2025-12-13T02:56:37.470205,
RTE_AMANV,AMANVILLERS,TX,RTE_ODRE,,,MISSING,MISSING,63.0,,63kV,OFFICIAL,,,,RTE,,Meurthe-et-Moselle,,Poste de transformation,,,,,AMANV,,MISSING,2025-12-13T02:56:37.470209,
RTE_AMARG,AMARGUE,TX,RTE_ODRE,49.8578945,2.2541461,OSM,EXACT,225.0,,225kV,OFFICIAL,,,,RTE,,Somme,,Poste de transformation,distribution,way_85735049,0.9,,AMARG,,MISSING,2025-12-13T02:56:37.470212,
RTE_AMBER,AMBERIEU,TX,RTE_ODRE,,,MISSING,MISSING,63.0,,63kV,OFFICIAL,,,,RTE,,Ain,,Poste de transformation,,,,,AMBER,,MISSING,2025-12-13T02:56:37.470218,
RTE_AMIEN,AMIENS,TX,RTE_ODRE,49.9120591,2.2940554,OSM,EXACT,225.0,,225kV,OFFICIAL,,,,RTE,,Somme,,Poste de transformation,transmission,way_111265307,0.9,,AMIEN,,MISSING,2025-12-13T02:56:37.470224,
RTE_ARVIG,ARVIGNY,TX,RTE_ODRE,,,MISSING,MISSING,225.0,,225kV,OFFICIAL,,,,RTE,,Essonne,,Poste de transformation,,,,,ARVIG,,MISSING,2025-12-13T02:56:37.470227,
RTE_ASSIE,ASSIER,TX,RTE_ODRE,,,MISSING,MISSING,63.0,,63kV,OFFICIAL,,,,RTE,,Lot,,Poste de transformation,,,,,ASSIE,,MISSING,2025-12-13T02:56:37.470231,
RTE_AUBEN,AUBENAS,TX,RTE_ODRE,,,MISSING,MISSING,63.0,,63kV,OFFICIAL,,,,RTE,,Ardèche,,Poste de transformation,,,,,AUBEN,,MISSING,2025-12-13T02:56:37.470234,
RTE_AUTER,AUTERRIVE,TX,RTE_ODRE,,,MISSING,MISSING,63.0,,63kV,OFFICIAL,,,,RTE,,Pyrénées-Atlantiques,,Poste de transformation,,,,,AUTER,,MISSING,2025-12-13T02:56:37.470237,
RTE_AVRAN,AVRANCHES,TX,RTE_ODRE,,,MISSING,MISSING,90.0,,90kV,OFFICIAL,,,,RTE,,Manche,,Poste de transformation,,,,,AVRAN,,MISSING,2025-12-13T02:56:37.470241,
RTE_B.COR,BREGNIER-CORDON,TX,RTE_ODRE,,,MISSING,MISSING,63.0,,63kV,OFFICIAL,,,,RTE,,Isère,,Poste de transformation,,,,,B.COR,,MISSING,2025-12-13T02:56:37.470245,
RTE_B.GUI,BOIS-GUILLAUME,TX,RTE_ODRE,49.4670823,1.1327358,OSM,EXACT,90.0,,90kV,OFFICIAL,,,,RTE,,Seine-Maritime,,Poste de transformation,distribution,way_166594692,0.9,,B.GUI,,MISSING,2025-12-13T02:56:37.470249,
RTE_B.VAL,BOURG-LES-VALENCE,TX,RTE_ODRE,45.0951179,4.204514,OSM,EXACT,225.0,,225kV,OFFICIAL,,,,RTE,,Ardèche,,Poste de transformation,minor_distribution,node_5679579218,0.9,,B.VAL,,MISSING,2025-12-13T02:56:37.470253,
RTE_BASTI,BASTILLAC,TX,RTE_ODRE,43.2253855,0.0401234,OSM,EXACT,225.0,,225kV,OFFICIAL,,,,RTE,,Hautes-Pyrénées,,Poste de transformation,transmission,way_96822819,0.9,,BASTI,,MISSING,2025-12-13T02:56:37.470257,
RTE_BENE5,BENETIERE,TX,RTE_ODRE,,,MISSING,MISSING,90.0,,90kV,OFFICIAL,,,,RTE,,Maine-et-Loire,,Poste de transformation,,,,,BENE5,,MISSING,2025-12-13T02:56:37.470261,
RTE_BERRE,BERRE,TX,RTE_ODRE,43.4969628,5.2038764,OSM,EXACT,63.0,,63kV,OFFICIAL,,,,RTE,,Bouches-du-Rhône,,Poste de transformation,distribution,way_182940630,0.9,,BERRE,,MISSING,2025-12-13T02:56:37.470264,
RTE_BERTH,BERTHOLENE,TX,RTE_ODRE,,,MISSING,MISSING,63.0,,63kV,OFFICIAL,,,,RTE,,Aveyron,,Poste de transformation,,,,,BERTH,,MISSING,2025-12-13T02:56:37.470268,
RTE_BESS5,BESSEY,TX,RTE_ODRE,,,MISSING,MISSING,63.0,,63kV,OFFICIAL,,,,RTE,,Loire,,Poste de transformation,,,,,BESS5,,MISSING,2025-12-13T02:56:37.470271,
RTE_BZGAY,BOURGAY (ENEDIS),TX,RTE_ODRE,,,MISSING,MISSING,90.0,,90kV,OFFICIAL,,,,RTE,,Seine-Maritime,,Poste de transformation,,,,,BZGAY,,MISSING,2025-12-13T02:56:37.470276,
RTE_C.AND,COTE-ST-ANDRE (LA),TX,RTE_ODRE,,,MISSING,MISSING,63.0,,63kV,OFFICIAL,,,,RTE,,Isère,,Poste de transformation,,,,,C.AND,,MISSING,2025-12-13T02:56:37.470280,
RTE_C.CAD,CROIX-CADET,TX,RTE_ODRE,,,MISSING,MISSING,90.0,,90kV,OFFICIAL,,,,RTE,,Haute-Vienne,,Poste de transformation,,,,,C.CAD,,MISSING,2025-12-13T02:56:37.470283,
RTE_C.NEY,CROIX-DE-NEYRAT,TX,RTE_ODRE,45.810344,3.102791,OSM,EXACT,63.0,,63kV,OFFICIAL,,,,RTE,,Puy-de-Dôme,,Poste de transformation,distribution,way_71124736,0.9,,C.NEY,,MISSING,2025-12-13T02:56:37.470287,
RTE_C.SAL,CHAMP-SALMON,TX,RTE_ODRE,,,MISSING,MISSING,63.0,,63kV,OFFICIAL,,,,RTE,,Meurthe-et-Moselle,,Poste de transformation,,,,,C.SAL,,MISSING,2025-12-13T02:56:37.470291,
RTE_CAMBO,CAMBOLLE,TX,RTE_ODRE,,,MISSING,MISSING,90.0,,90kV,OFFICIAL,,,,RTE,,Eure,,Poste de transformation,,,,,CAMBO,,MISSING,2025-12-13T02:56:37.470294,
RTE_CARC5,CARCASSONNE,TX,RTE_ODRE,47.9746029,0.2329459,OSM,EXACT,63.0,,63kV,OFFICIAL,,,,RTE,,Aude,,Poste de transformation,minor_distribution,way_65130103,1.0,,CARC5,,MISSING,2025-12-13T02:56:37.470297,
RTE_CAVAL,CAVALAIRE,TX,RTE_ODRE,,,MISSING,MISSING,63.0,,63kV,OFFICIAL,,,,RTE,,Var,,Poste de transformation,,,,,CAVAL,,MISSING,2025-12-13T02:56:37.470302,
RTE_CESSE,CESSE,TX,RTE_ODRE,45.0973035,4.1451748,OSM,EXACT,63.0,,63kV,OFFICIAL,,,,RTE,,Aude,,Poste de transformation,minor_distribution,node_5851433185,0.9,,CESSE,,MISSING,2025-12-13T02:56:37.470305,
RTE_CHA.N,CHALON-NORD,TX,RTE_ODRE,43.966428,4.1231996,OSM,EXACT,63.0,,63kV,OFFICIAL,,,,RTE,,Saône-et-Loire,,Poste de transformation,minor_distribution,node_7578251774,0.9,,CHA.N,,MISSING,2025-12-13T02:56:37.470309,
RTE_CHAN6,CHANCENAY,TX,RTE_ODRE,48.6768504,4.9985558,OSM,EXACT,225.0,,225kV,OFFICIAL,,,,RTE,,Marne,,Poste de transformation,transmission,way_259142886,0.9,,CHAN6,,MISSING,2025-12-13T02:56:37.470312,
RTE_CHANC,CHANCIA,TX,RTE_ODRE,46.3477922,5.6325486,OSM,EXACT,63.0,,63kV,OFFICIAL,,,,RTE,,Jura,,Poste de transformation,transmission,way_234066172,0.9,,CHANC,,MISSING,2025-12-13T02:56:37.470318,
RTE_CHANO,CHANOZ,TX,RTE_ODRE,,,MISSING,MISSING,63.0,,63kV,OFFICIAL,,,,RTE,,Rhône,,Poste de transformation,,,,,CHANO,,MISSING,2025-12-13T02:56:37.470321,
RTE_CHAVA,CHAVAROCHE,TX,RTE_ODRE,,,MISSING,MISSING,63.0,,63kV,OFFICIAL,,,,RTE,,Haute-Savoie,,Poste de transformation,,,,,CHAVA,,MISSING,2025-12-13T02:56:37.470325,
RTE_CIERP,CIERP,TX,RTE_ODRE,,,MISSING,MISSING,63.0,,63kV,OFFICIAL,,,,RTE,,Hautes-Pyrénées,,Poste de transformation,,,,,CIERP,,MISSING,2025-12-13T02:56:37.470328,
RTE_CLEDE,CLEDER,TX,RTE_ODRE,48.6447175,-4.1334583,OSM,EXACT,63.0,,63kV,OFFICIAL,,,,RTE,,Finistère,,Poste de transformation,distribution,way_337665972,0.9,,CLEDE,,MISSING,2025-12-13T02:56:37.470331,
RTE_CLIMA,CLIMADEF,TX,RTE_ODRE,,,MISSING,MISSING,63.0,,63kV,OFFICIAL,,,,RTE,,Yvelines,,Poste de transformation,,,,,CLIMA,,MISSING,2025-12-13T02:56:37.470338,
RTE_CLUS5,CLUSE (LA),TX,RTE_ODRE,,,MISSING,MISSING,63.0,,63kV,OFFICIAL,,,,RTE,,Ain,,Poste de transformation,,,,,CLUS5,,MISSING,2025-12-13T02:56:37.470341,
RTE_CLUSE,CLUSES,TX,RTE_ODRE,,,MISSING,MISSING,63.0,,63kV,OFFICIAL,,,,RTE,,Haute-Savoie,,Poste de transformation,,,,,CLUSE,,MISSING,2025-12-13T02:56:37.470344,
RTE_CORBI,CORBIERE (LA),TX,RTE_ODRE,,,MISSING,MISSING,225.0,,225kV,OFFICIAL,,,,RTE,,Maine-et-Loire,,Poste de transformation,,,,,CORBI,,MISSING,2025-12-13T02:56:37.470352,
RTE_CPNAC,CHAMPAGNAC,TX,RTE_ODRE,45.7195654,0.8988432,OSM,EXACT,90.0,,90kV,OFFICIAL,,,,RTE,,Haute-Vienne,,Poste de transformation,transmission,way_140390161,0.9,,CPNAC,,MISSING,2025-12-13T02:56:37.470355,
RTE_CREPI,CREPIEUX,TX,RTE_ODRE,,,MISSING,MISSING,63.0,,63kV,OFFICIAL,,,,RTE,,Rhône,,Poste de transformation,,,,,CREPI,,MISSING,2025-12-13T02:56:37.470358,
RTE_CROI5,CROIXRAULT,TX,RTE_ODRE,,,MISSING,MISSING,90.0,,90kV,OFFICIAL,,,,RTE,,Somme,,Poste de transformation,,,,,CROI5,,MISSING,2025-12-13T02:56:37.470362,
RTE_CRUEL,CRUEL (LE),TX,RTE_ODRE,,,MISSING,MISSING,90.0,,90kV,OFFICIAL,,,,RTE,,Ille-et-Vilaine,,Poste de transformation,,,,,CRUEL,,MISSING,2025-12-13T02:56:37.470365,
RTE_CSLJA,CASTELJALOUX,TX,RTE_ODRE,44.3190622,0.0944326,OSM,EXACT,63.0,,63kV,OFFICIAL,,,,RTE,,Lot-et-Garonne,,Poste de transformation,distribution,way_191909384,1.0,,CSLJA,,MISSING,2025-12-13T02:56:37.470369,
RTE_CSLS5,CASTELSARRASIN (CLIENT),TX,RTE_ODRE,,,MISSING,MISSING,63.0,,63kV,OFFICIAL,,,,RTE,,Tarn-et-Garonne,,Poste de transformation,,,,,CSLS5,,MISSING,2025-12-13T02:56:37.470372,
RTE_CZLIS,COURLIS,TX,RTE_ODRE,47.8719683,-3.8871303,OSM,EXACT,90.0,,90kV,OFFICIAL,,,,RTE,,Seine-Maritime,,Poste de transformation,,node_3207216344,1.0,,CZLIS,,MISSING,2025-12-13T02:56:37.470375,
RTE_CZNEU,COURNEUVE (LA),TX,RTE_ODRE,,,MISSING,MISSING,225.0,,225kV,OFFICIAL,,,,RTE,,Hauts-de-Seine,,Poste de transformation,,,,,CZNEU,,MISSING,2025-12-13T02:56:37.470378,
RTE_CZVIL,COURVILLE,TX,RTE_ODRE,48.4520764,1.2368881,OSM,EXACT,90.0,,90kV,OFFICIAL,,,,RTE,,Eure-et-Loir,,Poste de transformation,traction,way_187190347,0.9,,CZVIL,,MISSING,2025-12-13T02:56:37.470382,
RTE_D.PAL,DUN LE PALESTEL,TX,RTE_ODRE,,,MISSING,MISSING,90.0,,90kV,OFFICIAL,,,,RTE,,Creuse,,Poste de transformation,,,,,D.PAL,,MISSING,2025-12-13T02:56:37.470385,
RTE_DECIN,DECINES,TX,RTE_ODRE,45.7510577,4.9355939,OSM,EXACT,225.0,,225kV,OFFICIAL,,,,RTE,,Rhône,,Poste de transformation,distribution,way_1452991120,0.9,,DECIN,,MISSING,2025-12-13T02:56:37.470391,
RTE_DELBA,DELBASSE,TX,RTE_ODRE,,,MISSING,MISSING,90.0,,90kV,OFFICIAL,,,,RTE,,Nord,,Poste de transformation,,,,,DELBA,,MISSING,2025-12-13T02:56:37.470395,
RTE_DELLE,DELLE,TX,RTE_ODRE,47.5014425,6.9929411,OSM,EXACT,63.0,,63kV,OFFICIAL,,,,RTE,,Doubs,,Poste de transformation,,way_129865196,1.0,,DELLE,,MISSING,2025-12-13T02:56:37.470400,
RTE_DINAN,DINAN,TX,RTE_ODRE,,,MISSING,MISSING,63.0,,63kV,OFFICIAL,,,,RTE,,Côtes-d'Armor,,Poste de transformation,,,,,DINAN,,MISSING,2025-12-13T02:56:37.470404,
RTE_DIVES,DIVES,TX,RTE_ODRE,49.2849098,-0.1098522,OSM,EXACT,90.0,,90kV,OFFICIAL,,,,RTE,,,,Poste de transformation,,way_132636958,0.9,,DIVES,,MISSING,2025-12-13T02:56:37.470407,
RTE_DORMA,DORMANS,TX,RTE_ODRE,,,MISSING,MISSING,63.0,,63kV,OFFICIAL,,,,RTE,,Aisne,,Poste de transformation,,,,,DORMA,,MISSING,2025-12-13T02:56:37.470410,
RTE_ESTAQ,ESTAQUE (L),TX,RTE_ODRE,,,MISSING,MISSING,63.0,,63kV,OFFICIAL,,,,RTE,,Bouches-du-Rhône,,Poste de transformation,,,,,ESTAQ,,MISSING,2025-12-13T02:56:37.470414,
RTE_ETAUL,ETAULIERS,TX,RTE_ODRE,45.2192666,-0.5668046,OSM,EXACT,63.0,,63kV,OFFICIAL,,,,RTE,,Gironde,,Poste de transformation,distribution,way_491655575,1.0,,ETAUL,,MISSING,2025-12-13T02:56:37.470417,
RTE_F.JOU,FERTE-SOUS-JOUARRE (LA),TX,RTE_ODRE,,,MISSING,MISSING,63.0,,63kV,OFFICIAL,,,,RTE,,Seine-et-Marne,,Poste de transformation,,,,,F.JOU,,MISSING,2025-12-13T02:56:37.470420,
RTE_F.MAN,FOUR-MANOIR,TX,RTE_ODRE,47.8790972,-3.5062223,OSM,EXACT,63.0,,63kV,OFFICIAL,,,,RTE,,Nord,,Poste de transformation,minor_distribution,node_3667405682,0.9,,F.MAN,,MISSING,2025-12-13T02:56:37.470424,
RTE_FAMAR,FAMARS,TX,RTE_ODRE,50.31166,3.5056762,OSM,EXACT,225.0,,225kV,OFFICIAL,,,,RTE,,Nord,,Poste de transformation,transmission,way_129624451,0.9,,FAMAR,,MISSING,2025-12-13T02:56:37.470427,
RTE_FAUGE,FAUGERES,TX,RTE_ODRE,,,MISSING,MISSING,63.0,,63kV,OFFICIAL,,,,RTE,,Hérault,,Poste de transformation,,,,,FAUGE,,MISSING,2025-12-13T02:56:37.470431,
RTE_FEISS,FEISSONS,TX,RTE_ODRE,45.5637561,6.4707367,OSM,EXACT,63.0,,63kV,OFFICIAL,,,,RTE,,Savoie,,Poste de transformation,generation,way_455838097,0.9,,FEISS,,MISSING,2025-12-13T02:56:37.470434,
RTE_FERRI,FERRIERES,TX,RTE_ODRE,42.9353928,1.6178013,OSM,EXACT,63.0,,63kV,OFFICIAL,,,,RTE,,Ariège,,Poste de transformation,transmission,way_170510270,0.9,,FERRI,,MISSING,2025-12-13T02:56:37.470439,
RTE_FIER,FIER,TX,RTE_ODRE,45.911701,6.0943933,OSM,EXACT,63.0,,63kV,OFFICIAL,,,,RTE,,Haute-Savoie,,Poste de transformation,industrial,way_228134526,0.9,,FIER,,MISSING,2025-12-13T02:56:37.470443,
RTE_FLORE,FLORENSAC,TX,RTE_ODRE,43.3864144,3.4815615,OSM,EXACT,225.0,,225kV,OFFICIAL,,,,RTE,,Hérault,,Poste de transformation,transmission,way_130595758,0.9,,FLORE,,MISSING,2025-12-13T02:56:37.470448,
RTE_FORMI,FORMIGUERES,TX,RTE_ODRE,,,MISSING,MISSING,63.0,,63kV,OFFICIAL,,,,RTE,,Pyrénées-Orientales,,Poste de transformation,,,,,FORMI,,MISSING,2025-12-13T02:56:37.470451,
RTE_G.COU,GRAND-COURONNE,TX,RTE_ODRE,49.3504706,0.9933398,OSM,EXACT,225.0,,225kV,OFFICIAL,,,,RTE,,Seine-Maritime,,Poste de transformation,transmission,way_119048154,0.9,,G.COU,,MISSING,2025-12-13T02:56:37.470454,
RTE_G.LUC,GRAND LUCE,TX,RTE_ODRE,,,MISSING,MISSING,90.0,,90kV,OFFICIAL,,,,RTE,,Sarthe,,Poste de transformation,,,,,G.LUC,,MISSING,2025-12-13T02:56:37.470458,
RTE_GAREN,GARENNES,TX,RTE_ODRE,50.9627158,1.8828824,OSM,EXACT,90.0,,90kV,OFFICIAL,,,,RTE,,,,Poste de transformation,distribution,way_373563396,0.9,,GAREN,,MISSING,2025-12-13T02:56:37.470461,
RTE_GARIB,GARIBALDI,TX,RTE_ODRE,48.8476548,2.3043735,OSM,EXACT,225.0,,225kV,OFFICIAL,,,,RTE,,Paris,,Poste de transformation,distribution,way_54117385,0.9,,GARIB,,MISSING,2025-12-13T02:56:37.470464,
RTE_GENI6,GENISSIAT-PORTIQUE,TX,RTE_ODRE,,,MISSING,MISSING,63.0,,63kV,OFFICIAL,,,,RTE,,Ain,,Poste de transformation,,,,,GENI6,,MISSING,2025-12-13T02:56:37.470467,
RTE_GHISO,GHISONACCIA,TX,RTE_ODRE,42.0651508,9.3705217,OSM,EXACT,,,HORS TENSION,OFFICIAL,,,,RTE,,Val-d'Oise,,Poste de transformation,distribution,way_138481295,0.9,,GHISO,,MISSING,2025-12-13T02:56:37.470470,
RTE_GLACI,GLACIERE (LA),TX,RTE_ODRE,,,MISSING,MISSING,63.0,,63kV,OFFICIAL,,,,RTE,,Gironde,,Poste de transformation,,,,,GLACI,,MISSING,2025-12-13T02:56:37.470474,
RTE_GUARB,GUARBECQUE,TX,RTE_ODRE,50.6189789,2.5044511,OSM,EXACT,225.0,,225kV,OFFICIAL,,,,RTE,,Pas-de-Calais,,Poste de transformation,transmission,way_147580973,0.9,,GUARB,,MISSING,2025-12-13T02:56:37.470477,
RTE_GYSSE,GYSSERIE,TX,RTE_ODRE,46.8341515,5.6004716,OSM,EXACT,63.0,,63kV,OFFICIAL,,,,RTE,,Jura,,Poste de transformation,,way_123803366,1.0,,GYSSE,,MISSING,2025-12-13T02:56:37.470481,
RTE_HAUT6,HAUTERIVE,TX,RTE_ODRE,46.7666631,7.1256888,OSM,EXACT,63.0,,63kV,OFFICIAL,,,,RTE,,Ain,,Poste de transformation,,way_122720993,0.9,,HAUT6,,MISSING,2025-12-13T02:56:37.470484,
RTE_HAUTE,HAUTEFAGE,TX,RTE_ODRE,45.0711285,1.9760059,OSM,EXACT,90.0,,90kV,OFFICIAL,,,,RTE,,Corrèze,,Poste de transformation,transmission,way_139582165,0.9,,HAUTE,,MISSING,2025-12-13T02:56:37.470487,
RTE_HORME,HORME (L ),TX,RTE_ODRE,,,MISSING,MISSING,63.0,,63kV,OFFICIAL,,,,RTE,,Loire,,Poste de transformation,,,,,HORME,,MISSING,2025-12-13T02:56:37.470490,
RTE_J.BRU,JEAN BRUNHES,TX,RTE_ODRE,43.5999979,1.4207824,OSM,EXACT,63.0,,63kV,OFFICIAL,,,,RTE,,Haute-Garonne,,Poste de transformation,distribution,way_64093415,0.9,,J.BRU,,MISSING,2025-12-13T02:56:37.470494,
RTE_JARNE,JARNE (LA),TX,RTE_ODRE,,,MISSING,MISSING,90.0,,90kV,OFFICIAL,,,,RTE,,Charente-Maritime,,Poste de transformation,,,,,JARNE,,MISSING,2025-12-13T02:56:37.470499,
RTE_L.BAR,LIGNY-EN-BARROIS,TX,RTE_ODRE,47.9283045,1.9460495,OSM,EXACT,63.0,,63kV,OFFICIAL,,,,RTE,,Meuse,,Poste de transformation,minor_distribution,way_345782647,0.9,,L.BAR,,MISSING,2025-12-13T02:56:37.470502,
RTE_LAURO,LAURONS,TX,RTE_ODRE,,,MISSING,MISSING,63.0,,63kV,OFFICIAL,,,,RTE,,,,Poste de transformation,,,,,LAURO,,MISSING,2025-12-13T02:56:37.470505,
RTE_LECTO,LECTOURE,TX,RTE_ODRE,,,MISSING,MISSING,63.0,,63kV,OFFICIAL,,,,RTE,,Gers,,Poste de transformation,,,,,LECTO,,MISSING,2025-12-13T02:56:37.470509,
RTE_LIORA,LIORAN,TX,RTE_ODRE,,,MISSING,MISSING,63.0,,63kV,OFFICIAL,,,,RTE,,Cantal,,Poste de transformation,,,,,LIORA,,MISSING,2025-12-13T02:56:37.470512,
RTE_LOING,LOING,TX,RTE_ODRE,,,MISSING,MISSING,63.0,,63kV,OFFICIAL,,,,RTE,,Seine-et-Marne,,Poste de transformation,,,,,LOING,,MISSING,2025-12-13T02:56:37.470515,
RTE_LOURD,LOURDES,TX,RTE_ODRE,,,MISSING,MISSING,63.0,,63kV,OFFICIAL,,,,RTE,,Hautes-Pyrénées,,Poste de transformation,,,,,LOURD,,MISSING,2025-12-13T02:56:37.470519,
RTE_LUZI1,LUZIERES I,TX,RTE_ODRE,,,MISSING,MISSING,63.0,,63kV,OFFICIAL,,,,RTE,,Tarn,,Poste de transformation,,,,,LUZI1,,MISSING,2025-12-13T02:56:37.470522,
RTE_MARC5,MARCILLAC,TX,RTE_ODRE,,,MISSING,MISSING,90.0,,90kV,OFFICIAL,,,,RTE,,Corrèze,,Poste de transformation,,,,,MARC5,,MISSING,2025-12-13T02:56:37.470525,
RTE_MARC8,MARCLAN,TX,RTE_ODRE,,,MISSING,MISSING,63.0,,63kV,OFFICIAL,,,,RTE,,Haute-Garonne,,Poste de transformation,,,,,MARC8,,MISSING,2025-12-13T02:56:37.470528,
RTE_MERY,MERY (CIE GLE EAUX A MERY-SUR-OISE),TX,RTE_ODRE,,,MISSING,MISSING,63.0,,63kV,OFFICIAL,,,,RTE,,Val-d'Oise,,Poste de transformation,,,,,MERY,,MISSING,2025-12-13T02:56:37.470532,
RTE_MEXY,MEXY,TX,RTE_ODRE,,,MISSING,MISSING,63.0,,63kV,OFFICIAL,,,,RTE,,Meurthe-et-Moselle,,Poste de transformation,,,,,MEXY,,MISSING,2025-12-13T02:56:37.470536,
RTE_MEZEL,MEZEL,TX,RTE_ODRE,45.745681,3.2370337,OSM,EXACT,63.0,,63kV,OFFICIAL,,,,RTE,,Puy-de-Dôme,,Poste de transformation,distribution,way_71571863,0.9,,MEZEL,,MISSING,2025-12-13T02:56:37.470539,
RTE_MILLE,MILLERY (54),TX,RTE_ODRE,,,MISSING,MISSING,63.0,,63kV,OFFICIAL,,,,RTE,,Meurthe-et-Moselle,,Poste de transformation,,,,,MILLE,,MISSING,2025-12-13T02:56:37.470543,
RTE_MIREV,MIREVAL,TX,RTE_ODRE,,,MISSING,MISSING,63.0,,63kV,OFFICIAL,,,,RTE,,Hérault,,Poste de transformation,,,,,MIREV,,MISSING,2025-12-13T02:56:37.470546,
RTE_MOISE,MOISENAY,TX,RTE_ODRE,48.5694838,2.7517024,OSM,EXACT,225.0,,225kV,OFFICIAL,,,,RTE,,Seine-et-Marne,,Poste de transformation,traction,way_106284701,0.9,,MOISE,,MISSING,2025-12-13T02:56:37.470552,
RTE_MOISY,MOISY,TX,RTE_ODRE,,,MISSING,MISSING,90.0,,90kV,OFFICIAL,,,,RTE,,Loir-et-Cher,,Poste de transformation,,,,,MOISY,,MISSING,2025-12-13T02:56:37.470557,
RTE_MORBR,MORBRAS,TX,RTE_ODRE,48.778795,2.6484339,OSM,EXACT,400.0,,400kV,OFFICIAL,,,,RTE,,Val-de-Marne,,Poste de transformation,transmission,way_27266058,0.9,,MORBR,,MISSING,2025-12-13T02:56:37.470561,
RTE_MTBRO,MONTBRON,TX,RTE_ODRE,45.6735644,0.4933296,OSM,EXACT,90.0,,90kV,OFFICIAL,,,,RTE,,Charente,,Poste de transformation,distribution,way_129559622,0.9,,MTBRO,,MISSING,2025-12-13T02:56:37.470565,
RTE_MTEND,MONTENDRE,TX,RTE_ODRE,,,MISSING,MISSING,90.0,,90kV,OFFICIAL,,,,RTE,,Charente-Maritime,,Poste de transformation,,,,,MTEND,,MISSING,2025-12-13T02:56:37.470568,
RTE_MTGUY,MONTGUYON,TX,RTE_ODRE,45.2034106,-0.2184778,OSM,EXACT,225.0,,225kV,OFFICIAL,,,,RTE,,Charente-Maritime,,Poste de transformation,transmission,way_142360067,0.9,,MTGUY,,MISSING,2025-12-13T02:56:37.470572,
RTE_MTMIR,MONTMIRAIL,TX,RTE_ODRE,,,MISSING,MISSING,63.0,,63kV,OFFICIAL,,,,RTE,,Aisne,,Poste de transformation,,,,,MTMIR,,MISSING,2025-12-13T02:56:37.470575,
RTE_NAINT,NAINTRE,TX,RTE_ODRE,,,MISSING,MISSING,90.0,,90kV,OFFICIAL,,,,RTE,,Vienne,,Poste de transformation,,,,,NAINT,,MISSING,2025-12-13T02:56:37.470579,
RTE_NEUVY,NEUVY,TX,RTE_ODRE,47.5108167,2.8928822,OSM,EXACT,63.0,,63kV,OFFICIAL,,,,RTE,,Loiret,,Poste de transformation,traction,way_262483936,0.9,,NEUVY,,MISSING,2025-12-13T02:56:37.470584,
RTE_NYONS,NYONS,TX,RTE_ODRE,,,MISSING,MISSING,63.0,,63kV,OFFICIAL,,,,RTE,,Drôme,,Poste de transformation,,,,,NYONS,,MISSING,2025-12-13T02:56:37.470591,
RTE_O.CEI,OUEST-CEINTURE,TX,RTE_ODRE,48.8295544,2.304475,OSM,EXACT,63.0,,63kV,OFFICIAL,,,,RTE,,Hauts-de-Seine,,Poste de transformation,traction,way_353946232,1.0,,O.CEI,,MISSING,2025-12-13T02:56:37.470596,
RTE_ORAN5,ORANGERIE (STRASBOURG),TX,RTE_ODRE,,,MISSING,MISSING,63.0,,63kV,OFFICIAL,,,,RTE,,Bas-Rhin,,Poste de transformation,,,,,ORAN5,,MISSING,2025-12-13T02:56:37.470601,
RTE_ORCHI,ORCHIES,TX,RTE_ODRE,,,MISSING,MISSING,90.0,,90kV,OFFICIAL,,,,RTE,,Nord,,Poste de transformation,,,,,ORCHI,,MISSING,2025-12-13T02:56:37.470607,
RTE_ORTH5,ORTHEZ,TX,RTE_ODRE,43.650017,1.4804295,OSM,EXACT,63.0,,63kV,OFFICIAL,,,,RTE,,Pyrénées-Atlantiques,,Poste de transformation,minor_distribution,way_166449752,1.0,,ORTH5,,MISSING,2025-12-13T02:56:37.470613,
RTE_OSERA,OSERAIE,TX,RTE_ODRE,,,MISSING,MISSING,63.0,,63kV,OFFICIAL,,,,RTE,,Seine-et-Marne,,Poste de transformation,,,,,OSERA,,MISSING,2025-12-13T02:56:37.470618,
RTE_P.MEE,PONT-DU-MEE,TX,RTE_ODRE,45.1811025,3.0558347,OSM,EXACT,63.0,,63kV,OFFICIAL,,,,RTE,,Seine-et-Marne,,Poste de transformation,minor_distribution,node_2509899490,0.9,,P.MEE,,MISSING,2025-12-13T02:56:37.470627,
RTE_PARC,PARC (LE),TX,RTE_ODRE,48.1844102,5.8949571,OSM,EXACT,225.0,,225kV,OFFICIAL,,,,RTE,,Sarthe,,Poste de transformation,minor_distribution,way_121681038,0.9,,PARC,,MISSING,2025-12-13T02:56:37.470633,
RTE_PERRA,PERRACHE,TX,RTE_ODRE,,,MISSING,MISSING,225.0,,225kV,OFFICIAL,,,,RTE,,Rhône,,Poste de transformation,,,,,PERRA,,MISSING,2025-12-13T02:56:37.470639,
RTE_PEYRO,PEYROU,TX,RTE_ODRE,43.6087817,3.8647824,OSM,EXACT,225.0,,225kV,OFFICIAL,,,,RTE,,Hérault,,Poste de transformation,,way_75389646,0.9,,PEYRO,,MISSING,2025-12-13T02:56:37.470643,
RTE_PITHI,PITHIVIERS,TX,RTE_ODRE,48.1689065,2.2213079,OSM,EXACT,90.0,,90kV,OFFICIAL,,,,RTE,,Loiret,,Poste de transformation,,way_42958093,0.9,,PITHI,,MISSING,2025-12-13T02:56:37.470647,
RTE_PLOUA,PLOUAY,TX,RTE_ODRE,47.9327169,-3.2835016,OSM,EXACT,63.0,,63kV,OFFICIAL,,,,RTE,,Morbihan,,Poste de transformation,transmission,way_260374609,0.9,,PLOUA,,MISSING,2025-12-13T02:56:37.470651,
RTE_PLUMA,PLUMASSERIE (LA),TX,RTE_ODRE,,,MISSING,MISSING,90.0,,90kV,OFFICIAL,,,,RTE,,Sarthe,,Poste de transformation,,,,,PLUMA,,MISSING,2025-12-13T02:56:37.470656,
RTE_Q.ISS,QUAI D ISSY,TX,RTE_ODRE,48.8355919,2.2676879,OSM,EXACT,63.0,,63kV,OFFICIAL,,,,RTE,,Hauts-de-Seine,,Poste de transformation,traction,way_184266319,0.9,,Q.ISS,,MISSING,2025-12-13T02:56:37.470659,
RTE_R.MOL,RUE DE MOLSHEIM,TX,RTE_ODRE,,,MISSING,MISSING,63.0,,63kV,OFFICIAL,,,,RTE,,Bas-Rhin,,Poste de transformation,,,,,R.MOL,,MISSING,2025-12-13T02:56:37.470662,
RTE_R.NE5,ROCHEFORT (PORTIQUE),TX,RTE_ODRE,,,MISSING,MISSING,63.0,,63kV,OFFICIAL,,,,RTE,,Jura,,Poste de transformation,,,,,R.NE5,,MISSING,2025-12-13T02:56:37.470666,
RTE_RANVI,RANVILLE,TX,RTE_ODRE,49.2164188,-0.2818295,OSM,EXACT,225.0,,225kV,OFFICIAL,,,,RTE,,Calvados,,Poste de transformation,transmission,way_108089073,0.9,,RANVI,,MISSING,2025-12-13T02:56:37.470669,
RTE_RIORG,RIORGES,TX,RTE_ODRE,46.0580738,4.055898,OSM,EXACT,225.0,,225kV,OFFICIAL,,,,RTE,,Loire,,Poste de transformation,transmission,way_118121877,0.9,,RIORG,,MISSING,2025-12-13T02:56:37.470673,
RTE_RIOUP,RIOUPEROUX,TX,RTE_ODRE,,,MISSING,MISSING,63.0,,63kV,OFFICIAL,,,,RTE,,Isère,,Poste de transformation,,,,,RIOUP,,MISSING,2025-12-13T02:56:37.470676,
RTE_ROBE5,ROBERTSAU,TX,RTE_ODRE,48.614321,7.7804195,OSM,EXACT,63.0,,63kV,OFFICIAL,,,,RTE,,Bas-Rhin,,Poste de transformation,distribution,way_45236732,0.9,,ROBE5,,MISSING,2025-12-13T02:56:37.470679,
RTE_RODE,RODE (LA),TX,RTE_ODRE,,,MISSING,MISSING,63.0,,63kV,OFFICIAL,,,,RTE,,Var,,Poste de transformation,,,,,RODE,,MISSING,2025-12-13T02:56:37.470683,
RTE_ROJA,ROJA,TX,RTE_ODRE,44.4113615,0.3058357,OSM,EXACT,63.0,,63kV,OFFICIAL,,,,RTE,,Lot-et-Garonne,,Poste de transformation,distribution,way_191913933,1.0,,ROJA,,MISSING,2025-12-13T02:56:37.470689,
RTE_ROLAM,ROLAMPONT,TX,RTE_ODRE,47.9234335,5.28983,OSM,EXACT,225.0,,225kV,OFFICIAL,,,,RTE,,Haute-Marne,,Poste de transformation,transmission,way_120553316,0.9,,ROLAM,,MISSING,2025-12-13T02:56:37.470693,
RTE_ROUI5,ROUILLAC,TX,RTE_ODRE,45.7639935,-0.0745053,OSM,EXACT,90.0,,90kV,OFFICIAL,,,,RTE,,Charente,,Poste de transformation,distribution,way_155112955,0.9,,ROUI5,,MISSING,2025-12-13T02:56:37.470698,
RTE_S.GIR,SALIN-DE-GIRAUD,TX,RTE_ODRE,43.4167755,4.7308781,OSM,EXACT,63.0,,63kV,OFFICIAL,,,,RTE,,Bouches-du-Rhône,,Poste de transformation,yes,way_183858480,1.0,,S.GIR,,MISSING,2025-12-13T02:56:37.470702,
RTE_S.UNI,SARRE-UNION,TX,RTE_ODRE,48.9338732,7.0598935,OSM,EXACT,63.0,,63kV,OFFICIAL,,,,RTE,,Bas-Rhin,,Poste de transformation,,way_381700674,0.9,,S.UNI,,MISSING,2025-12-13T02:56:37.470705,
RTE_SABLE,SABLE,TX,RTE_ODRE,48.8901488,2.401725,OSM,EXACT,90.0,,90kV,OFFICIAL,,,,RTE,,Sarthe,,Poste de transformation,minor_distribution,node_7160876722,1.0,,SABLE,,MISSING,2025-12-13T02:56:37.470709,
RTE_SALLE,SALLES(-SOUS-BOIS),TX,RTE_ODRE,,,MISSING,MISSING,63.0,,63kV,OFFICIAL,,,,RTE,,Drôme,,Poste de transformation,,,,,SALLE,,MISSING,2025-12-13T02:56:37.470712,
RTE_SARR7,SARRALBE,TX,RTE_ODRE,49.0091251,7.0324504,OSM,EXACT,63.0,,63kV,OFFICIAL,,,,RTE,,Moselle,,Poste de transformation,distribution,way_491655545,0.9,,SARR7,,MISSING,2025-12-13T02:56:37.470715,
RTE_SARRA,SARRANS,TX,RTE_ODRE,44.8288626,2.7404223,OSM,EXACT,225.0,,225kV,OFFICIAL,,,,RTE,,Aveyron,,Poste de transformation,generation,way_262121267,0.9,,SARRA,,MISSING,2025-12-13T02:56:37.470719,
RTE_SARRY,SARRY,TX,RTE_ODRE,47.6685001,4.0875598,OSM,EXACT,225.0,,225kV,OFFICIAL,,,,RTE,,Yonne,,Poste de transformation,traction,way_128381283,0.9,,SARRY,,MISSING,2025-12-13T02:56:37.470722,
RTE_SARSA,SARSAN,TX,RTE_ODRE,,,MISSING,MISSING,63.0,,63kV,OFFICIAL,,,,RTE,,Hautes-Pyrénées,,Poste de transformation,,,,,SARSA,,MISSING,2025-12-13T02:56:37.470727,
RTE_SAUTI,SAUTILLET,TX,RTE_ODRE,49.3936585,3.1103179,OSM,EXACT,63.0,,63kV,OFFICIAL,,,,RTE,,Oise,,Poste de transformation,distribution,way_198169847,1.0,,SAUTI,,MISSING,2025-12-13T02:56:37.470731,
RTE_SOULL,SOULLANS,TX,RTE_ODRE,46.7844889,-1.8871701,OSM,EXACT,225.0,,225kV,OFFICIAL,,,,RTE,,Vendée,,Poste de transformation,transmission,way_480525512,0.9,,SOULL,,MISSING,2025-12-13T02:56:37.470734,
RTE_SSAN5,ST-ANTONIN,TX,RTE_ODRE,,,MISSING,MISSING,63.0,,63kV,OFFICIAL,,,,RTE,,Tarn-et-Garonne,,Poste de transformation,,,,,SSAN5,,MISSING,2025-12-13T02:56:37.470738,
RTE_SSCH6,ST-CHARLES,TX,RTE_ODRE,47.7498121,7.3679388,OSM,EXACT,63.0,,63kV,OFFICIAL,,,,RTE,,Meurthe-et-Moselle,,Poste de transformation,minor_distribution,way_186089080,0.9,,SSCH6,,MISSING,2025-12-13T02:56:37.470742,
RTE_SSFOL,ST-JEAN-DE-FOLLEVILLE,TX,RTE_ODRE,,,MISSING,MISSING,90.0,,90kV,OFFICIAL,,,,RTE,,Seine-Maritime,,Poste de transformation,,,,,SSFOL,,MISSING,2025-12-13T02:56:37.470747,
RTE_SSGUI,ST-GUILLERME,TX,RTE_ODRE,,,MISSING,MISSING,225.0,,225kV,OFFICIAL,,,,RTE,,Isère,,Poste de transformation,,,,,SSGUI,,MISSING,2025-12-13T02:56:37.470751,
RTE_SSSUL,ST-SULPICE,TX,RTE_ODRE,,,MISSING,MISSING,63.0,,63kV,OFFICIAL,,,,RTE,,Haute-Garonne,,Poste de transformation,,,,,SSSUL,,MISSING,2025-12-13T02:56:37.470754,
RTE_SYNTH,SYNTHESE,TX,RTE_ODRE,,,MISSING,MISSING,63.0,,63kV,OFFICIAL,,,,RTE,,Moselle,,Poste de transformation,,,,,SYNTH,,MISSING,2025-12-13T02:56:37.470758,
RTE_TARAS,TARASCON,TX,RTE_ODRE,42.851478,1.5974256,OSM,EXACT,225.0,,225kV,OFFICIAL,,,,RTE,,Ariège,,Poste de transformation,distribution,way_118400623,0.9,,TARAS,,MISSING,2025-12-13T02:56:37.470761,
RTE_TARBE,TARBES (ALSTHOM A SEMEAC),TX,RTE_ODRE,,,MISSING,MISSING,63.0,,63kV,OFFICIAL,,,,RTE,,Hautes-Pyrénées,,Poste de transformation,,,,,TARBE,,MISSING,2025-12-13T02:56:37.470765,
RTE_TENAY,TENAY,TX,RTE_ODRE,,,MISSING,MISSING,63.0,,63kV,OFFICIAL,,,,RTE,,Ain,,Poste de transformation,,,,,TENAY,,MISSING,2025-12-13T02:56:37.470768,
RTE_TURCK,TURCKHEIM,TX,RTE_ODRE,,,MISSING,MISSING,63.0,,63kV,OFFICIAL,,,,RTE,,Haut-Rhin,,Poste de transformation,,,,,TURCK,,MISSING,2025-12-13T02:56:37.470772,
RTE_V.FEZ,VIC-FEZENSAC,TX,RTE_ODRE,41.9570351,2.2821754,OSM,EXACT,63.0,,63kV,OFFICIAL,,,,RTE,,Gers,,Poste de transformation,transmission,way_178294745,0.9,,V.FEZ,,MISSING,2025-12-13T02:56:37.470775,
RTE_V.MON,VEUVES-MONTEAUX,TX,RTE_ODRE,47.4761111,1.1245859,OSM,EXACT,90.0,,90kV,OFFICIAL,,,,RTE,,Indre-et-Loire,,Poste de transformation,traction,way_576833991,1.0,,V.MON,,MISSING,2025-12-13T02:56:37.470778,
RTE_VALLI,VALLIERES,TX,RTE_ODRE,,,MISSING,MISSING,63.0,,63kV,OFFICIAL,,,,RTE,,Savoie,,Poste de transformation,,,,,VALLI,,MISSING,2025-12-13T02:56:37.470783,
RTE_VARAN,VARANGEVILLE,TX,RTE_ODRE,48.630927,6.3338938,OSM,EXACT,63.0,,63kV,OFFICIAL,,,,RTE,,Meurthe-et-Moselle,,Poste de transformation,,way_146575554,1.0,,VARAN,,MISSING,2025-12-13T02:56:37.470786,
RTE_VAUCA,VAUCANSON,TX,RTE_ODRE,45.1915503,4.2304734,OSM,EXACT,63.0,,63kV,OFFICIAL,,,,RTE,,Isère,,Poste de transformation,minor_distribution,node_5783594029,1.0,,VAUCA,,MISSING,2025-12-13T02:56:37.470790,
RTE_VECQU,VECQUEMONT,TX,RTE_ODRE,,,MISSING,MISSING,90.0,,90kV,OFFICIAL,,,,RTE,,Somme,,Poste de transformation,,,,,VECQU,,MISSING,2025-12-13T02:56:37.470793,
RTE_VERLH,VERLHAGUET,TX,RTE_ODRE,43.9827621,1.317515,OSM,EXACT,225.0,,225kV,OFFICIAL,,,,RTE,,Tarn-et-Garonne,,Poste de transformation,transmission,way_114359287,0.9,,VERLH,,MISSING,2025-12-13T02:56:37.470796,
RTE_VIAUD,VIAUD,TX,RTE_ODRE,49.0351595,-1.59461,OSM,EXACT,63.0,,63kV,OFFICIAL,,,,RTE,,Moselle,,Poste de transformation,minor_distribution,way_129276860,0.9,,VIAUD,,MISSING,2025-12-13T02:56:37.470802,
RTE_VICLA,VICLAIRE,TX,RTE_ODRE,45.600654,6.8606125,OSM,EXACT,63.0,,63kV,OFFICIAL,,,,RTE,,Savoie,,Poste de transformation,transmission,way_455838176,0.9,,VICLA,,MISSING,2025-12-13T02:56:37.470809,
RTE_VIVIE,VIVIEZ,TX,RTE_ODRE,,,MISSING,MISSING,63.0,,63kV,OFFICIAL,,,,RTE,,Aveyron,,Poste de transformation,,,,,VIVIE,,MISSING,2025-12-13T02:56:37.470812,
RTE_VLEGU,VILLEGUSIEN,TX,RTE_ODRE,47.7429293,5.324252,OSM,EXACT,63.0,,63kV,OFFICIAL,,,,RTE,,Haute-Marne,,Poste de transformation,traction,way_120675537,0.9,,VLEGU,,MISSING,2025-12-13T02:56:37.470823,
RTE_WESTH,WESTHOUCK (COPENOR G.I.E.),TX,RTE_ODRE,,,MISSING,MISSING,225.0,,225kV,OFFICIAL,,,,RTE,,Nord,,Poste de transformation,,,,,WESTH,,MISSING,2025-12-13T02:56:37.470826,
RTE_WOEST,WOESTYNE,TX,RTE_ODRE,,,MISSING,MISSING,225.0,,225kV,OFFICIAL,,,,RTE,,Pas-de-Calais,,Poste de transformation,,,,,WOEST,,MISSING,2025-12-13T02:56:37.470830,
RTE_YDES,YDES,TX,RTE_ODRE,,,MISSING,MISSING,90.0,,90kV,OFFICIAL,,,,RTE,,Cantal,,Poste de transformation,,,,,YDES,,MISSING,2025-12-13T02:56:37.470833,
RTE_ZANCE,ANCEL / MARGE PRATC 1,TX,RTE_ODRE,,,MISSING,MISSING,63.0,,63kV,OFFICIAL,,,,RTE,,Haute-Loire,,Point de piquage,,,,,ZANCE,,MISSING,2025-12-13T02:56:37.470837,
RTE_ZARQ5,ARQUE / BATAV LONG9 2,TX,RTE_ODRE,,,MISSING,MISSING,90.0,,90kV,OFFICIAL,,,,RTE,,Pas-de-Calais,,Point de piquage,,,,,ZARQ5,,MISSING,2025-12-13T02:56:37.470840,
RTE_ZAUB7,PIQUAGE AUBRIVES,TX,RTE_ODRE,,,MISSING,MISSING,63.0,,63kV,OFFICIAL,,,,RTE,,Meurthe-et-Moselle,,Point de piquage,,,,,ZAUB7,,MISSING,2025-12-13T02:56:37.470843,
RTE_ZB.L5,PIQUAGE BORDERES-ET-LAMENSANS (LIAISON A.ADOZ31NAOUT),TX,RTE_ODRE,,,MISSING,MISSING,63.0,,63kV,OFFICIAL,,,,RTE,,Landes,,Point de piquage,,,,,ZB.L5,,MISSING,2025-12-13T02:56:37.470847,
RTE_ZBRAC,BRACH / BELLE CULOZ 1,TX,RTE_ODRE,,,MISSING,MISSING,63.0,,63kV,OFFICIAL,,,,RTE,,Ain,,Point de piquage,,,,,ZBRAC,,MISSING,2025-12-13T02:56:37.470850,
RTE_ZBRIC,PIQUAGE BRICHE A SAINT-DENIS (ZBRIC),TX,RTE_ODRE,47.9198839,1.9298092,OSM,EXACT,225.0,,225kV,OFFICIAL,,,,RTE,,Val-d'Oise,,Point de piquage,minor_distribution,way_124665313,0.9,,ZBRIC,,MISSING,2025-12-13T02:56:37.470854,
RTE_ZCLAY,PIQUAGE A CLAYES,TX,RTE_ODRE,,,MISSING,MISSING,,,HORS TENSION,OFFICIAL,,,,RTE,,Ille-et-Vilaine,,Point de piquage,,,,,ZCLAY,,MISSING,2025-12-13T02:56:37.470857,
RTE_ZCOL.,PIQUAGE COLMAR-NORD,TX,RTE_ODRE,43.966428,4.1231996,OSM,EXACT,63.0,,63kV,OFFICIAL,,,,RTE,,Haut-Rhin,,Point de piquage,minor_distribution,node_7578251774,0.9,,ZCOL.,,MISSING,2025-12-13T02:56:37.470860,
RTE_ZCREM,PIQUAGE A CREMADE,TX,RTE_ODRE,,,MISSING,MISSING,63.0,,63kV,OFFICIAL,,,,RTE,,Vaucluse,,Point de piquage,,,,,ZCREM,,MISSING,2025-12-13T02:56:37.470866,
RTE_ZFAN5,PIQUAGE FANAUDES A MONTMAGNY (ZFAN5),TX,RTE_ODRE,,,MISSING,MISSING,225.0,,225kV,OFFICIAL,,,,RTE,,Val-d'Oise,,Point de piquage,,,,,ZFAN5,,MISSING,2025-12-13T02:56:37.470870,
RTE_ZFTAI,FTAI6 / ARRAS GAVRE 1,TX,RTE_ODRE,,,MISSING,MISSING,90.0,,90kV,OFFICIAL,,,,RTE,,Pas-de-Calais,,Point de piquage,,,,,ZFTAI,,MISSING,2025-12-13T02:56:37.470873,
RTE_ZHER7,PIQUAGE HERBLAY A HERBLAY (ZHER7),TX,RTE_ODRE,,,MISSING,MISSING,225.0,,225kV,OFFICIAL,,,,RTE,,Val-d'Oise,,Point de piquage,,,,,ZHER7,,MISSING,2025-12-13T02:56:37.470876,
RTE_ZHERB,PIQUAGE HERBLAY A HERBLAY (ZHERB),TX,RTE_ODRE,,,MISSING,MISSING,225.0,,225kV,OFFICIAL,,,,RTE,,Val-d'Oise,,Point de piquage,,,,,ZHERB,,MISSING,2025-12-13T02:56:37.470880,
RTE_ZMALL,PIQUAGE A MALLE (LA),TX,RTE_ODRE,,,MISSING,MISSING,63.0,,63kV,OFFICIAL,,,,RTE,,Bouches-du-Rhône,,Point de piquage,,,,,ZMALL,,MISSING,2025-12-13T02:56:37.470884,
RTE_ZMALM,PIQUAGE A SAINT-GERMAIN-DE-FRESNEY,TX,RTE_ODRE,45.615581,5.20462,OSM,EXACT,90.0,,90kV,OFFICIAL,,,,RTE,,Eure,,Point de piquage,minor_distribution,way_39545519,0.9,,ZMALM,,MISSING,2025-12-13T02:56:37.470887,
RTE_ZMAUP,PIQUAGE MAUPAS,TX,RTE_ODRE,46.3559798,6.7002305,OSM,EXACT,63.0,,63kV,OFFICIAL,,,,RTE,,Marne,,Point de piquage,minor_distribution,node_7101992863,0.9,,ZMAUP,,MISSING,2025-12-13T02:56:37.470891,
RTE_ZMESN,PIQUAGE A MESNAY,TX,RTE_ODRE,,,MISSING,MISSING,63.0,,63kV,OFFICIAL,,,,RTE,,Jura,,Point de piquage,,,,,ZMESN,,MISSING,2025-12-13T02:56:37.470894,
RTE_ZMETH,PIQUAGE A METHANIER,TX,RTE_ODRE,,,MISSING,MISSING,63.0,,63kV,OFFICIAL,,,,RTE,,Bouches-du-Rhône,,Point de piquage,,,,,ZMETH,,MISSING,2025-12-13T02:56:37.470897,
RTE_ZMRN6,PIQUAGE A MARTINIERE,TX,RTE_ODRE,,,MISSING,MISSING,63.0,,63kV,OFFICIAL,,,,RTE,,Vaucluse,,Point de piquage,,,,,ZMRN6,,MISSING,2025-12-13T02:56:37.470900,
RTE_ZMTJA,PIQUAGE MONTJAY A LES ULIS (ZMTJA),TX,RTE_ODRE,,,MISSING,MISSING,225.0,,225kV,OFFICIAL,,,,RTE,,Essonne,,Point de piquage,,,,,ZMTJA,,MISSING,2025-12-13T02:56:37.470904,
RTE_ZP.B6,P.BEN / B.ETO MOUCH 1,TX,RTE_ODRE,,,MISSING,MISSING,63.0,,63kV,OFFICIAL,,,,RTE,,Rhône,,Point de piquage,,,,,ZP.B6,,MISSING,2025-12-13T02:56:37.470907,
RTE_ZPANN,PIQUAGE PANNESIERE,TX,RTE_ODRE,,,MISSING,MISSING,63.0,,63kV,OFFICIAL,,,,RTE,,Nièvre,,Point de piquage,,,,,ZPANN,,MISSING,2025-12-13T02:56:37.470910,
RTE_ZPENN,PIQUAGE 1 AUX PENNES,TX,RTE_ODRE,,,MISSING,MISSING,63.0,,63kV,OFFICIAL,,,,RTE,,Bouches-du-Rhône,,Point de piquage,,,,,ZPENN,,MISSING,2025-12-13T02:56:37.470913,
RTE_ZPOM5,POMBL / CONTA POM.C 1,TX,RTE_ODRE,,,MISSING,MISSING,63.0,,63kV,OFFICIAL,,,,RTE,,Savoie,,Point de piquage,,,,,ZPOM5,,MISSING,2025-12-13T02:56:37.470919,
RTE_ZPOUA,POUAN / CRAON CTAUB 1,TX,RTE_ODRE,,,MISSING,MISSING,90.0,,90kV,OFFICIAL,,,,RTE,,Loire-Atlantique,,Point de piquage,,,,,ZPOUA,,MISSING,2025-12-13T02:56:37.470922,
RTE_ZROC7,ROCH5 / DARDI G.VIO 1,TX,RTE_ODRE,,,MISSING,MISSING,63.0,,63kV,OFFICIAL,,,,RTE,,Rhône,,Point de piquage,,,,,ZROC7,,MISSING,2025-12-13T02:56:37.470925,
RTE_ZTOU7,PIQUAGE TOURNAY SNCF (LIAISON BOUHEZ31LUGRA),TX,RTE_ODRE,44.138083,4.819391,OSM,EXACT,63.0,,63kV,OFFICIAL,,,,RTE,,Hautes-Pyrénées,,Point de piquage,,way_79075607,0.9,,ZTOU7,,MISSING,2025-12-13T02:56:37.470930,
RTE_ZTRAM,PIQUAGE TRAMAZAYGUES (LIAISON BORDEZ31BORD8),TX,RTE_ODRE,,,MISSING,MISSING,63.0,,63kV,OFFICIAL,,,,RTE,,Hautes-Pyrénées,,Point de piquage,,,,,ZTRAM,,MISSING,2025-12-13T02:56:37.470933,
RTE_ZTREF,PIQUAGE A TREFLEVENEZ,TX,RTE_ODRE,,,MISSING,MISSING,225.0,,225kV,OFFICIAL,,,,RTE,,Finistère,,Point de piquage,,,,,ZTREF,,MISSING,2025-12-13T02:56:37.470939,
RTE_ZPUYC,PIQUAGE A PUYCHENIT,TX,RTE_ODRE,,,MISSING,MISSING,90.0,,90kV,OFFICIAL,,,,RTE,,Dordogne,,Point de piquage,,,,,ZPUYC,,MISSING,2025-12-13T02:56:37.470943,
RTE_ZSSE6,PIQUAGE A SAINT-ESTEPHE,TX,RTE_ODRE,,,MISSING,MISSING,63.0,,63kV,OFFICIAL,,,,RTE,,Gironde,,Point de piquage,,,,,ZSSE6,,MISSING,2025-12-13T02:56:37.470947,
RTE_ZVA10,PIQUAGE A VALDEROURE,TX,RTE_ODRE,43.7881722,6.6476839,OSM,EXACT,225.0,,225kV,OFFICIAL,,,,RTE,,Var,,Point de piquage,distribution,way_818615644,0.9,,ZVA10,,MISSING,2025-12-13T02:56:37.470951,
RTE_EYRE5,EYREIN,TX,RTE_ODRE,,,MISSING,MISSING,90.0,,90kV,OFFICIAL,,,,RTE,,Corrèze,,Poste de transformation,,,,,EYRE5,,MISSING,2025-12-13T02:56:37.470955,
RTE_ZQ.EC,PP A LEFFRINCKOUCKE (DUNES / G.SYN Q.ECL 1),TX,RTE_ODRE,,,MISSING,MISSING,225.0,,225kV,OFFICIAL,,,,RTE,,Nord,,Point de piquage,,,,,ZQ.EC,,MISSING,2025-12-13T02:56:37.470958,
RTE_SSPLA,STE-CROIX-EN-PLAINE,TX,RTE_ODRE,44.7142986,1.1431508,OSM,EXACT,63.0,,63kV,OFFICIAL,,,,RTE,,Haut-Rhin,,Poste de transformation,minor_distribution,node_5769056350,0.9,,SSPLA,,MISSING,2025-12-13T02:56:37.470961,
RTE_ZLINA,PIQUAGE A LINAS (PRINCIPAL),TX,RTE_ODRE,,,MISSING,MISSING,225.0,,225kV,OFFICIAL,,,,RTE,,Essonne,,Point de piquage,,,,,ZLINA,,MISSING,2025-12-13T02:56:37.470965,
RTE_GERR5,GER,TX,RTE_ODRE,,,MISSING,MISSING,90.0,,90kV,OFFICIAL,,,,RTE,,Manche,,Poste de transformation,,,,,GERR5,,MISSING,2025-12-13T02:56:37.470968,
RTE_ZBLA6,PIQUAGE A BLANQUEFORT,TX,RTE_ODRE,,,MISSING,MISSING,63.0,,63kV,OFFICIAL,,,,RTE,,Gironde,,Point de piquage,,,,,ZBLA6,,MISSING,2025-12-13T02:56:37.470971,
RTE_ZCNR7,PIQUAGE CHANTEREINE A THOUROTTE (ZCNR7),TX,RTE_ODRE,49.2942963,4.12571,OSM,EXACT,63.0,,63kV,OFFICIAL,,,,RTE,,Oise,,Point de piquage,minor_distribution,way_254730017,0.9,,ZCNR7,,MISSING,2025-12-13T02:56:37.470981,
RTE_ZPUYA,PIQUAGE A PUYALOUS,TX,RTE_ODRE,,,MISSING,MISSING,63.0,,63kV,OFFICIAL,,,,RTE,,Pyrénées-Atlantiques,,Point de piquage,,,,,ZPUYA,,MISSING,2025-12-13T02:56:37.470993,
RTE_ZLES8,PIQUAGE A LESCAR,TX,RTE_ODRE,,,MISSING,MISSING,63.0,,63kV,OFFICIAL,,,,RTE,,Pyrénées-Atlantiques,,Point de piquage,,,,,ZLES8,,MISSING,2025-12-13T02:56:37.470997,
RTE_CZMEL,COURMELLES,TX,RTE_ODRE,,,MISSING,MISSING,63.0,,63kV,OFFICIAL,,,,RTE,,Aisne,,Poste de transformation,,,,,CZMEL,,MISSING,2025-12-13T02:56:37.471000,
RTE_ZGOUD,PIQUAGE GOUDOULI,TX,RTE_ODRE,,,MISSING,MISSING,63.0,,63kV,OFFICIAL,,,,RTE,,Haute-Garonne,,Point de piquage,,,,,ZGOUD,,MISSING,2025-12-13T02:56:37.471004,
RTE_ZVLE6,PIQUAGE A VILLENOUVELLE,TX,RTE_ODRE,,,MISSING,MISSING,63.0,,63kV,OFFICIAL,,,,RTE,,Haute-Garonne,,Point de piquage,,,,,ZVLE6,,MISSING,2025-12-13T02:56:37.471009,
RTE_MTAG5,MONTAGNETTE (LA),TX,RTE_ODRE,,,MISSING,MISSING,225.0,,225kV,OFFICIAL,,,,RTE,,Bouches-du-Rhône,,Poste de transformation,,,,,MTAG5,,MISSING,2025-12-13T02:56:37.471015,
RTE_ZMTAU,PIQUAGE A MONTAUROUX,TX,RTE_ODRE,,,MISSING,MISSING,63.0,,63kV,OFFICIAL,,,,RTE,,Var,,Point de piquage,,,,,ZMTAU,,MISSING,2025-12-13T02:56:37.471019,
RTE_ZP.CR,PIQUAGE PONT DU CRIEU,TX,RTE_ODRE,45.1811025,3.0558347,OSM,EXACT,63.0,,63kV,OFFICIAL,,,,RTE,,Ariège,,Point de piquage,minor_distribution,node_2509899490,0.9,,ZP.CR,,MISSING,2025-12-13T02:56:37.471022,
RTE_COMBO,COMBOURG,TX,RTE_ODRE,48.4201828,-1.7210323,OSM,EXACT,90.0,,90kV,OFFICIAL,,,,RTE,,Ille-et-Vilaine,,Poste de transformation,transmission,way_138320661,0.9,,COMBO,,MISSING,2025-12-13T02:56:37.471026,
RTE_COMPE,COMPERTRIX,TX,RTE_ODRE,48.9414788,4.3473699,OSM,EXACT,63.0,,63kV,OFFICIAL,,,,RTE,,Marne,,Poste de transformation,,way_179795484,0.9,,COMPE,,MISSING,2025-12-13T02:56:37.471030,
RTE_CPNIE,CHAMPAGNIER,TX,RTE_ODRE,45.1061878,5.7092808,OSM,EXACT,400.0,,400kV,OFFICIAL,,,,RTE,,Isère,,Poste de transformation,transmission,way_69813552,0.9,,CPNIE,,MISSING,2025-12-13T02:56:37.471033,
RTE_CROZE,CROZES,TX,RTE_ODRE,43.2515916,2.8271593,OSM,EXACT,63.0,,63kV,OFFICIAL,,,,RTE,,Aude,,Poste de transformation,,way_590604205,0.9,,CROZE,,MISSING,2025-12-13T02:56:37.471037,
RTE_CSLN5,CASTELNAU (CLIENT),TX,RTE_ODRE,,,MISSING,MISSING,63.0,,63kV,OFFICIAL,,,,RTE,,Hérault,,Poste de transformation,,,,,CSLN5,,MISSING,2025-12-13T02:56:37.471041,
RTE_CTMAL,CHATEAU MALO,TX,RTE_ODRE,47.9478105,6.7710303,OSM,EXACT,63.0,,63kV,OFFICIAL,,,,RTE,,Ille-et-Vilaine,,Poste de transformation,minor_distribution,node_3855203736,0.9,,CTMAL,,MISSING,2025-12-13T02:56:37.471044,
RTE_CUS.P,CUSSET-POSTE,TX,RTE_ODRE,,,MISSING,MISSING,225.0,,225kV,OFFICIAL,,,,RTE,,Rhône,,Poste de transformation,,,,,CUS.P,,MISSING,2025-12-13T02:56:37.471048,
RTE_DANT5,DANTON,TX,RTE_ODRE,48.7126825,2.2585313,OSM,EXACT,63.0,,63kV,OFFICIAL,,,,RTE,,Yvelines,,Poste de transformation,,node_9483576617,1.0,,DANT5,,MISSING,2025-12-13T02:56:37.471054,
RTE_DARBL,DARBLAY,TX,RTE_ODRE,49.3647603,1.1175995,OSM,EXACT,225.0,,225kV,OFFICIAL,,,,RTE,,Seine-Maritime,,Poste de transformation,generation,way_166699100,0.9,,DARBL,,MISSING,2025-12-13T02:56:37.471058,
RTE_DEGA5,DEGAGNAC,TX,RTE_ODRE,,,MISSING,MISSING,63.0,,63kV,OFFICIAL,,,,RTE,,Lot,,Poste de transformation,,,,,DEGA5,,MISSING,2025-12-13T02:56:37.471062,
RTE_DOULL,DOULLENS,TX,RTE_ODRE,,,MISSING,MISSING,90.0,,90kV,OFFICIAL,,,,RTE,,Somme,,Poste de transformation,,,,,DOULL,,MISSING,2025-12-13T02:56:37.471065,
RTE_EMBRU,EMBRUN,TX,RTE_ODRE,44.5645995,6.5057095,OSM,EXACT,63.0,,63kV,OFFICIAL,,,,RTE,,Hautes-Alpes,,Poste de transformation,distribution,way_148586244,1.0,,EMBRU,,MISSING,2025-12-13T02:56:37.471069,
RTE_ERROU,ERROUVILLE,TX,RTE_ODRE,49.4120792,5.8995522,OSM,EXACT,63.0,,63kV,OFFICIAL,,,,RTE,,Meurthe-et-Moselle,,Poste de transformation,distribution,way_208385019,0.9,,ERROU,,MISSING,2025-12-13T02:56:37.471072,
RTE_ESSAR,ESSARS,TX,RTE_ODRE,,,MISSING,MISSING,90.0,,90kV,OFFICIAL,,,,RTE,,Pas-de-Calais,,Poste de transformation,,,,,ESSAR,,MISSING,2025-12-13T02:56:37.471078,
RTE_ROUVR,ROUVRAY,TX,RTE_ODRE,49.3686765,1.1051388,OSM,EXACT,,,HORS TENSION,OFFICIAL,,,,RTE,,Seine-Maritime,,Poste de transformation,transmission,relation_17873353,0.9,,ROUVR,,MISSING,2025-12-13T02:56:37.471081,
RTE_S.COM,SURY-LE-COMTAL,TX,RTE_ODRE,45.5399668,4.2012855,OSM,EXACT,63.0,,63kV,OFFICIAL,,,,RTE,,Loire,,Poste de transformation,distribution,way_131405195,0.9,,S.COM,,MISSING,2025-12-13T02:56:37.471084,
RTE_SAINT,SAINTES,TX,RTE_ODRE,45.7514584,-0.612777,OSM,EXACT,225.0,,225kV,OFFICIAL,,,,RTE,,Charente-Maritime,,Poste de transformation,transmission,way_105652455,0.9,,SAINT,,MISSING,2025-12-13T02:56:37.471087,
RTE_SARZE,SARZEAU,TX,RTE_ODRE,,,MISSING,MISSING,63.0,,63kV,OFFICIAL,,,,RTE,,Morbihan,,Poste de transformation,,,,,SARZE,,MISSING,2025-12-13T02:56:37.471091,
RTE_SAUCL,SAUCLIERES,TX,RTE_ODRE,,,MISSING,MISSING,63.0,,63kV,OFFICIAL,,,,RTE,,Hérault,,Poste de transformation,,,,,SAUCL,,MISSING,2025-12-13T02:56:37.471094,
RTE_SAUDR,SAUDRUPT,TX,RTE_ODRE,,,MISSING,MISSING,63.0,,63kV,OFFICIAL,,,,RTE,,Marne,,Poste de transformation,,,,,SAUDR,,MISSING,2025-12-13T02:56:37.471098,
RTE_SAULI,SAULIEU,TX,RTE_ODRE,,,MISSING,MISSING,63.0,,63kV,OFFICIAL,,,,RTE,,Côte-d'Or,,Poste de transformation,,,,,SAULI,,MISSING,2025-12-13T02:56:37.471101,
RTE_SAUV5,SAUVEUR,TX,RTE_ODRE,45.7534825,6.6006276,OSM,EXACT,63.0,,63kV,OFFICIAL,,,,RTE,,Côtes-d'Armor,,Poste de transformation,minor_distribution,node_4829433443,0.9,,SAUV5,,MISSING,2025-12-13T02:56:37.471107,
RTE_SAUV6,SAUVETERRE,TX,RTE_ODRE,43.4734573,2.5524155,OSM,EXACT,63.0,,63kV,OFFICIAL,,,,RTE,,Gard,,Poste de transformation,minor_distribution,way_284165433,0.9,,SAUV6,,MISSING,2025-12-13T02:56:37.471110,
RTE_SEMIN,SEMINAIRE,TX,RTE_ODRE,46.535278,3.3617243,OSM,EXACT,225.0,,225kV,OFFICIAL,,,,RTE,,Allier,,Poste de transformation,distribution,way_137355542,0.9,,SEMIN,,MISSING,2025-12-13T02:56:37.471113,
RTE_SEVIG,SEVIGNAC,TX,RTE_ODRE,48.3141184,-2.3323007,OSM,EXACT,63.0,,63kV,OFFICIAL,,,,RTE,,Côtes-d'Armor,,Poste de transformation,,way_204467577,0.9,,SEVIG,,MISSING,2025-12-13T02:56:37.471117,
RTE_SIBEL,SIBELIN,TX,RTE_ODRE,45.6527135,4.8443599,OSM,EXACT,63.0,,63kV,OFFICIAL,,,,RTE,,Rhône,,Poste de transformation,traction,way_133868509,0.9,,SIBEL,,MISSING,2025-12-13T02:56:37.471120,
RTE_SISTE,SISTERON,TX,RTE_ODRE,44.2126386,5.9214068,OSM,EXACT,225.0,,225kV,OFFICIAL,,,,RTE,,Hautes-Alpes,,Poste de transformation,transmission,way_146534506,0.9,,SISTE,,MISSING,2025-12-13T02:56:37.471123,
RTE_SORGU,SORGUES,TX,RTE_ODRE,43.9852039,4.8664279,OSM,EXACT,63.0,,63kV,OFFICIAL,,,,RTE,,Vaucluse,,Poste de transformation,traction,way_589672370,0.9,,SORGU,,MISSING,2025-12-13T02:56:37.471127,
RTE_SORRU,SORRUS,TX,RTE_ODRE,50.4556589,1.7217369,OSM,EXACT,225.0,,225kV,OFFICIAL,,,,RTE,,Pas-de-Calais,,Poste de transformation,transmission,way_147580996,0.9,,SORRU,,MISSING,2025-12-13T02:56:37.471130,
RTE_SOULA,SOULAC (CLIENT),TX,RTE_ODRE,,,MISSING,MISSING,63.0,,63kV,OFFICIAL,,,,RTE,,,,Poste de transformation,,,,,SOULA,,MISSING,2025-12-13T02:56:37.471133,
RTE_SSAMO,ST AMOUR,TX,RTE_ODRE,48.6403857,2.568604,OSM,EXACT,225.0,,225kV,OFFICIAL,,,,RTE,,Rhône,,Poste de transformation,,way_1385849495,0.9,,SSAMO,,MISSING,2025-12-13T02:56:37.471137,
RTE_SSCOM,ST-GEORGES-DE-COMMIERS,TX,RTE_ODRE,47.9859925,0.1636351,OSM,EXACT,63.0,,63kV,OFFICIAL,,,,RTE,,Isère,,Poste de transformation,minor_distribution,way_67420008,0.9,,SSCOM,,MISSING,2025-12-13T02:56:37.471141,
RTE_SSDIE,ST-DIE,TX,RTE_ODRE,,,MISSING,MISSING,63.0,,63kV,OFFICIAL,,,,RTE,,Vosges,,Poste de transformation,,,,,SSDIE,,MISSING,2025-12-13T02:56:37.471144,
RTE_SSGEN,ST-GENIEZ,TX,RTE_ODRE,,,MISSING,MISSING,90.0,,90kV,OFFICIAL,,,,RTE,,Corrèze,,Poste de transformation,,,,,SSGEN,,MISSING,2025-12-13T02:56:37.471147,
RTE_SSROC,ST-ROCH,TX,RTE_ODRE,46.1932477,5.2240302,OSM,EXACT,225.0,,225kV,OFFICIAL,,,,RTE,,Nord,,Poste de transformation,,node_11576009839,1.0,,SSROC,,MISSING,2025-12-13T02:56:37.471151,
RTE_SSSA5,ST-SAUVEUR,TX,RTE_ODRE,,,MISSING,MISSING,63.0,,63kV,OFFICIAL,,,,RTE,,Ardèche,,Poste de transformation,,,,,SSSA5,,MISSING,2025-12-13T02:56:37.471154,
RTE_T.FRO,TERRES-FROIDES,TX,RTE_ODRE,49.100897,-1.60229,OSM,EXACT,63.0,,63kV,OFFICIAL,,,,RTE,,Savoie,,Poste de transformation,minor_distribution,way_165062364,0.9,,T.FRO,,MISSING,2025-12-13T02:56:37.471160,
RTE_T.NOI,TERRES-NOIRES (S.N.C.F.),TX,RTE_ODRE,49.100897,-1.60229,OSM,EXACT,225.0,,225kV,OFFICIAL,,,,RTE,,Nord,,Poste de transformation,minor_distribution,way_165062364,0.9,,T.NOI,,MISSING,2025-12-13T02:56:37.471163,
RTE_TAVAU,TAVAUX (STE SOLVAY A TAVAUX),TX,RTE_ODRE,50.4468988,4.6621462,OSM,EXACT,225.0,,225kV,OFFICIAL,,,,RTE,,Jura,,Poste de transformation,industrial,way_226445167,0.9,,TAVAU,,MISSING,2025-12-13T02:56:37.471168,
RTE_TERNE,TERNES,TX,RTE_ODRE,48.8765226,2.2932252,OSM,EXACT,225.0,,225kV,OFFICIAL,,,,RTE,,Hauts-de-Seine,,Poste de transformation,distribution,way_84325599,0.9,,TERNE,,MISSING,2025-12-13T02:56:37.471172,
RTE_THIO5,THIONVILLE (CLIENT),TX,RTE_ODRE,,,MISSING,MISSING,90.0,,90kV,OFFICIAL,,,,RTE,,Eure-et-Loir,,Poste de transformation,,,,,THIO5,,MISSING,2025-12-13T02:56:37.471175,
RTE_TOURN,TOURNON,TX,RTE_ODRE,,,MISSING,MISSING,63.0,,63kV,OFFICIAL,,,,RTE,,Ardèche,,Poste de transformation,,,,,TOURN,,MISSING,2025-12-13T02:56:37.471178,
RTE_USSON,USSON,TX,RTE_ODRE,,,MISSING,MISSING,63.0,,63kV,OFFICIAL,,,,RTE,,Aude,,Poste de transformation,,,,,USSON,,MISSING,2025-12-13T02:56:37.471182,
RTE_VAL,VAL (LE),TX,RTE_ODRE,49.0754241,1.9996081,OSM,EXACT,63.0,,63kV,OFFICIAL,,,,RTE,,Var,,Poste de transformation,minor_distribution,way_485348202,0.9,,VAL,,MISSING,2025-12-13T02:56:37.471185,
RTE_VALL7,VALLON,TX,RTE_ODRE,45.1927942,4.5344515,OSM,EXACT,63.0,,63kV,OFFICIAL,,,,RTE,,Cher,,Poste de transformation,minor_distribution,node_6813010495,1.0,,VALL7,,MISSING,2025-12-13T02:56:37.471188,
RTE_VERN9,VERNOSC,TX,RTE_ODRE,,,MISSING,MISSING,63.0,,63kV,OFFICIAL,,,,RTE,,Ardèche,,Poste de transformation,,,,,VERN9,,MISSING,2025-12-13T02:56:37.471193,
RTE_VERTE,VERTEFEUILLE,TX,RTE_ODRE,50.6764437,3.0371472,OSM,EXACT,225.0,,225kV,OFFICIAL,,,,RTE,,Nord,,Poste de transformation,transmission,way_131317126,0.9,,VERTE,,MISSING,2025-12-13T02:56:37.471197,
RTE_VIELM,VIELMOULIN,TX,RTE_ODRE,47.3263846,4.686932,OSM,EXACT,400.0,,400kV,OFFICIAL,,,,RTE,,Côte-d'Or,,Poste de transformation,transmission,way_179260933,0.9,,VIELM,,MISSING,2025-12-13T02:56:37.471202,
RTE_VITRE,VITRE,TX,RTE_ODRE,,,MISSING,MISSING,90.0,,90kV,OFFICIAL,,,,RTE,,Ille-et-Vilaine,,Poste de transformation,,,,,VITRE,,MISSING,2025-12-13T02:56:37.471205,
RTE_VLEJU,VILLEJUST,TX,RTE_ODRE,48.6763706,2.2302821,OSM,EXACT,400.0,,400kV,OFFICIAL,,,,RTE,,Essonne,,Poste de transformation,transmission,way_23287448,0.9,,VLEJU,,MISSING,2025-12-13T02:56:37.471209,
RTE_WAGE,WAGE,TX,RTE_ODRE,49.4193771,2.1180654,OSM,EXACT,63.0,,63kV,OFFICIAL,,,,RTE,,Oise,,Poste de transformation,,way_106059004,0.9,,WAGE,,MISSING,2025-12-13T02:56:37.471212,
RTE_ZBAS7,PIQUAGE A BASTIDONNE,TX,RTE_ODRE,,,MISSING,MISSING,63.0,,63kV,OFFICIAL,,,,RTE,,Bouches-du-Rhône,,Point de piquage,,,,,ZBAS7,,MISSING,2025-12-13T02:56:37.471218,
RTE_ZHARC,PIQUAGE A SAINT-OUEN-DU-BREUIL,TX,RTE_ODRE,45.8146979,1.781822,OSM,EXACT,90.0,,90kV,OFFICIAL,,,,RTE,,Seine-Maritime,,Point de piquage,,node_2905610575,0.9,,ZHARC,,MISSING,2025-12-13T02:56:37.471221,
RTE_ZM.BL,M.BL6 / ENVAL S.BES 1,TX,RTE_ODRE,,,MISSING,MISSING,,,HORS TENSION,OFFICIAL,,,,RTE,,Puy-de-Dôme,,Point de piquage,,,,,ZM.BL,,MISSING,2025-12-13T02:56:37.471224,
RTE_ZMATR,PIQUAGE MATRAS (LIAISON ALBAIAZ31VERLH),TX,RTE_ODRE,,,MISSING,MISSING,63.0,,63kV,OFFICIAL,,,,RTE,,Tarn-et-Garonne,,Point de piquage,,,,,ZMATR,,MISSING,2025-12-13T02:56:37.471227,
RTE_ZMED5,PIQUAGE MEDOQUINE (LIAISON PESSAZ31TALEN),TX,RTE_ODRE,44.8171639,-0.5987142,OSM,EXACT,63.0,,63kV,OFFICIAL,,,,RTE,,Gironde,,Point de piquage,yes,way_188915707,0.9,,ZMED5,,MISSING,2025-12-13T02:56:37.471231,
RTE_ZMERY,PIQUAGE A LABBEVILLE,TX,RTE_ODRE,,,MISSING,MISSING,63.0,,63kV,OFFICIAL,,,,RTE,,Val-d'Oise,,Point de piquage,,,,,ZMERY,,MISSING,2025-12-13T02:56:37.471234,
RTE_ZNAY5,PIQUAGE NAY SNCF (LIAISON COARRZ31SARSA),TX,RTE_ODRE,44.138083,4.819391,OSM,EXACT,63.0,,63kV,OFFICIAL,,,,RTE,,Pyrénées-Atlantiques,,Point de piquage,,way_79075607,0.9,,ZNAY5,,MISSING,2025-12-13T02:56:37.471240,
RTE_ZP.BR,V.MON / COMMA ONZAI 1,TX,RTE_ODRE,,,MISSING,MISSING,90.0,,90kV,OFFICIAL,,,,RTE,,Indre-et-Loire,,Point de piquage,,,,,ZP.BR,,MISSING,2025-12-13T02:56:37.471243,
RTE_ZPENA,PIQUAGE A PEN-AR-VERN,TX,RTE_ODRE,,,MISSING,MISSING,63.0,,63kV,OFFICIAL,,,,RTE,,Finistère,,Point de piquage,,,,,ZPENA,,MISSING,2025-12-13T02:56:37.471246,
RTE_ZPER5,PIQUAGE PERPIGNAN 2 (LIAISON CABESZ32M.BRU),TX,RTE_ODRE,,,MISSING,MISSING,63.0,,63kV,OFFICIAL,,,,RTE,,Pyrénées-Orientales,,Point de piquage,,,,,ZPER5,,MISSING,2025-12-13T02:56:37.471249,
RTE_ZRAGE,RAGEA / CONTA MOTTA 1,TX,RTE_ODRE,,,MISSING,MISSING,63.0,,63kV,OFFICIAL,,,,RTE,,Savoie,,Point de piquage,,,,,ZRAGE,,MISSING,2025-12-13T02:56:37.471253,
RTE_ZREVE,REVE5 / BXREP GAMPA 2,TX,RTE_ODRE,,,MISSING,MISSING,63.0,,63kV,OFFICIAL,,,,RTE,,Drôme,,Point de piquage,,,,,ZREVE,,MISSING,2025-12-13T02:56:37.471256,
RTE_ZS.M5,S.MOR / CHANC VOUGL 1,TX,RTE_ODRE,,,MISSING,MISSING,63.0,,63kV,OFFICIAL,,,,RTE,,Jura,,Point de piquage,,,,,ZS.M5,,MISSING,2025-12-13T02:56:37.471259,
RTE_ZSOU6,PIQUAGE ADAST (LIAISON SARSAZ31SOULO),TX,RTE_ODRE,,,MISSING,MISSING,63.0,,63kV,OFFICIAL,,,,RTE,,Hautes-Pyrénées,,Point de piquage,,,,,ZSOU6,,MISSING,2025-12-13T02:56:37.471262,
RTE_ZSSAG,PIQUAGE STE-AGATHE (LIGNE N0 1),TX,RTE_ODRE,,,MISSING,MISSING,63.0,,63kV,OFFICIAL,,,,RTE,,Moselle,,Point de piquage,,,,,ZSSAG,,MISSING,2025-12-13T02:56:37.471266,
RTE_ZSSVA,PIQUAGE A ST-PARRES-LES-VAUDES,TX,RTE_ODRE,,,MISSING,MISSING,63.0,,63kV,OFFICIAL,,,,RTE,,Aube,,Point de piquage,,,,,ZSSVA,,MISSING,2025-12-13T02:56:37.471269,
RTE_ZTHO5,PIQUAGE A THOR 2 (LE),TX,RTE_ODRE,,,MISSING,MISSING,63.0,,63kV,OFFICIAL,,,,RTE,,Vaucluse,,Point de piquage,,,,,ZTHO5,,MISSING,2025-12-13T02:56:37.471275,
RTE_ZTHOR,PIQUAGE A THOR 1 (LE),TX,RTE_ODRE,,,MISSING,MISSING,63.0,,63kV,OFFICIAL,,,,RTE,,Vaucluse,,Point de piquage,,,,,ZTHOR,,MISSING,2025-12-13T02:56:37.471279,
RTE_ZV.A5,PIQUAGE VALENCE D AGEN (LIAISON GOLFEZ31MOISS),TX,RTE_ODRE,48.01616,0.2250218,OSM,EXACT,63.0,,63kV,OFFICIAL,,,,RTE,,Tarn-et-Garonne,,Point de piquage,minor_distribution,way_66196956,0.9,,ZV.A5,,MISSING,2025-12-13T02:56:37.471282,
RTE_ZVENI,VENIS / MIONS MOUCH 2,TX,RTE_ODRE,,,MISSING,MISSING,,,HORS TENSION,OFFICIAL,,,,RTE,,Rhône,,Point de piquage,,,,,ZVENI,,MISSING,2025-12-13T02:56:37.471285,
RTE_MONN5,MONNERVILLE,TX,RTE_ODRE,,,MISSING,MISSING,90.0,,90kV,OFFICIAL,,,,RTE,,Eure-et-Loir,,Poste de transformation,,,,,MONN5,,MISSING,2025-12-13T02:56:37.471288,
RTE_EPIZO,EPIZON - LES HAUTS PAYS,TX,RTE_ODRE,,,MISSING,MISSING,225.0,,225kV,OFFICIAL,,,,RTE,,Haute-Marne,,Poste de transformation,,,,,EPIZO,,MISSING,2025-12-13T02:56:37.471292,
RTE_LUCE,RSEIPC (SIEGE SOCIAL),TX,RTE_ODRE,,,MISSING,MISSING,45.0,,<45kV,OFFICIAL,,,,RTE,,Eure-et-Loir,,Poste de transformation,,,,,LUCE,,MISSING,2025-12-13T02:56:37.471295,
RTE_ZIVR5,PIQUAGE A IVRY5 (CLIENT),TX,RTE_ODRE,,,MISSING,MISSING,63.0,,63kV,OFFICIAL,,,,RTE,,Paris,,Point de piquage,,,,,ZIVR5,,MISSING,2025-12-13T02:56:37.471298,
RTE_MORCH,MORCHIES,TX,RTE_ODRE,50.1259751,2.952355,OSM,EXACT,225.0,,225kV,OFFICIAL,,,,RTE,,Pas-de-Calais,,Poste de transformation,transmission,way_986506106,0.9,,MORCH,,MISSING,2025-12-13T02:56:37.471301,
RTE_BEL12,BELLAC (RINGO),TX,RTE_ODRE,,,MISSING,MISSING,90.0,,90kV,OFFICIAL,,,,RTE,,Haute-Vienne,,Poste de transformation,,,,,BEL12,,MISSING,2025-12-13T02:56:37.471305,
RTE_JURA5,JURANCON (TELECOM),TX,RTE_ODRE,,,MISSING,MISSING,,,HORS TENSION,OFFICIAL,,,,RTE,,Pyrénées-Atlantiques,,Poste de transformation,,,,,JURA5,,MISSING,2025-12-13T02:56:37.471311,
RTE_ZROCB,PIQUAGE A ROCBARON,TX,RTE_ODRE,,,MISSING,MISSING,225.0,,225kV,OFFICIAL,,,,RTE,,Var,,Point de piquage,,,,,ZROCB,,MISSING,2025-12-13T02:56:37.471314,
RTE_LAITI,LAITIER (LE),TX,RTE_ODRE,,,MISSING,MISSING,90.0,,90kV,OFFICIAL,,,,RTE,,Vienne,,Poste de transformation,,,,,LAITI,,MISSING,2025-12-13T02:56:37.471317,
RTE_G.CER,GORGES-DE-LA-CERE,TX,RTE_ODRE,,,MISSING,MISSING,63.0,,63kV,OFFICIAL,,,,RTE,,Corrèze,,Poste de transformation,,,,,G.CER,,MISSING,2025-12-13T02:56:37.471320,
RTE_CALA5,CALAN,TX,RTE_ODRE,47.8806647,-3.3031278,OSM,EXACT,400.0,,400kV,OFFICIAL,,,,RTE,,Morbihan,,Poste de transformation,transmission,way_210389707,0.9,,CALA5,,MISSING,2025-12-13T02:56:37.471326,
RTE_ZBAST,PIQUAGE A BASTILLE,TX,RTE_ODRE,,,MISSING,MISSING,225.0,,225kV,OFFICIAL,,,,RTE,,Loire-Atlantique,,Point de piquage,,,,,ZBAST,,MISSING,2025-12-13T02:56:37.471330,
RTE_ZMORE,PIQUAGE A MOREAU,TX,RTE_ODRE,,,MISSING,MISSING,225.0,,225kV,OFFICIAL,,,,RTE,,Aude,,Point de piquage,,,,,ZMORE,,MISSING,2025-12-13T02:56:37.471333,
RTE_SAONE,SAONE,TX,RTE_ODRE,46.7770217,4.8437358,OSM,EXACT,225.0,,225kV,OFFICIAL,,,,RTE,,Doubs,,Poste de transformation,,way_127606941,0.9,,SAONE,,MISSING,2025-12-13T02:56:37.471336,
RTE_NEGR5,NEGREPELISSE,TX,RTE_ODRE,44.0508133,1.5118501,OSM,EXACT,225.0,,225kV,OFFICIAL,,,,RTE,,Tarn-et-Garonne,,Poste de transformation,distribution,way_1236930242,0.9,,NEGR5,,MISSING,2025-12-13T02:56:37.471340,
RTE_PIOVI,PIOVIT,TX,RTE_ODRE,,,MISSING,MISSING,63.0,,63kV,OFFICIAL,,,,RTE,,Dordogne,,Poste de transformation,,,,,PIOVI,,MISSING,2025-12-13T02:56:37.471343,
RTE_ZJUST,PIQUAGE A LA JUSTICE,TX,RTE_ODRE,,,MISSING,MISSING,225.0,,225kV,OFFICIAL,,,,RTE,,Eure-et-Loir,,Point de piquage,,,,,ZJUST,,MISSING,2025-12-13T02:56:37.471347,
RTE_MARIT,MARITIME,TX,RTE_ODRE,49.3511249,0.9894209,OSM,EXACT,90.0,,90kV,OFFICIAL,,,,RTE,,Eure,,Poste de transformation,traction,way_488898563,1.0,,MARIT,,MISSING,2025-12-13T02:56:37.471350,
RTE_G.MAS,GRAND-MAS (LE),TX,RTE_ODRE,,,MISSING,MISSING,225.0,,225kV,OFFICIAL,,,,RTE,,Puy-de-Dôme,,Poste de transformation,,,,,G.MAS,,MISSING,2025-12-13T02:56:37.471354,
RTE_GUER8,GUERACHE (LA),TX,RTE_ODRE,,,MISSING,MISSING,225.0,,225kV,OFFICIAL,,,,RTE,,Var,,Poste de transformation,,,,,GUER8,,MISSING,2025-12-13T02:56:37.471357,
RTE_RUYTI,RUYTINGEN (DUNKERQUE LNG),TX,RTE_ODRE,,,MISSING,MISSING,90.0,,90kV,OFFICIAL,,,,RTE,,,,Poste de transformation,,,,,RUYTI,,MISSING,2025-12-13T02:56:37.471361,
RTE_ZF.SS,PIQUAGE A LA FONTAINE-ST-HUBERT,TX,RTE_ODRE,47.1583814,5.9307531,OSM,EXACT,63.0,,63kV,OFFICIAL,,,,RTE,,Marne,,Point de piquage,minor_distribution,node_6472867425,0.9,,ZF.SS,,MISSING,2025-12-13T02:56:37.471364,
RTE_ZGARA,PIQUAGE A GARANGER,TX,RTE_ODRE,,,MISSING,MISSING,90.0,,90kV,OFFICIAL,,,,RTE,,Vendée,,Point de piquage,,,,,ZGARA,,MISSING,2025-12-13T02:56:37.471367,
RTE_V.POR,VIEUX-PORT,TX,RTE_ODRE,49.1100215,6.1632117,OSM,EXACT,225.0,,225kV,OFFICIAL,,,,RTE,,,,Poste de transformation,minor_distribution,node_11739041609,1.0,,V.POR,,MISSING,2025-12-13T02:56:37.471370,
RTE_CZSEU,COURSEULLES (SUR-MER),TX,RTE_ODRE,,,MISSING,MISSING,225.0,,225kV,OFFICIAL,,,,RTE,,,,Poste de transformation,,,,,CZSEU,,MISSING,2025-12-13T02:56:37.471374,
RTE_1BAS5,BASSIES,TX,RTE_ODRE,,,MISSING,MISSING,45.0,,<45kV,OFFICIAL,,,,RTE,,Ariège,,Poste de transformation,,,,,1BAS5,,MISSING,2025-12-13T02:56:37.471379,
RTE_ALBE5,ALBERT,TX,RTE_ODRE,44.8063167,-0.6105559,OSM,EXACT,90.0,,90kV,OFFICIAL,,,,RTE,,Somme,,Poste de transformation,minor_distribution,way_447502195,1.0,,ALBE5,,MISSING,2025-12-13T02:56:37.471383,
RTE_ALLAI,ALLAIRE,TX,RTE_ODRE,,,MISSING,MISSING,63.0,,63kV,OFFICIAL,,,,RTE,,Morbihan,,Poste de transformation,,,,,ALLAI,,MISSING,2025-12-13T02:56:37.471388,
RTE_ANNAY,ANNAY,TX,RTE_ODRE,,,MISSING,MISSING,63.0,,63kV,OFFICIAL,,,,RTE,,Yonne,,Poste de transformation,,,,,ANNAY,,MISSING,2025-12-13T02:56:37.471391,
RTE_AUXER,AUXERRE,TX,RTE_ODRE,,,MISSING,MISSING,63.0,,63kV,OFFICIAL,,,,RTE,,Yonne,,Poste de transformation,,,,,AUXER,,MISSING,2025-12-13T02:56:37.471395,
RTE_AVIO5,AVION,TX,RTE_ODRE,,,MISSING,MISSING,90.0,,90kV,OFFICIAL,,,,RTE,,Pas-de-Calais,,Poste de transformation,,,,,AVIO5,,MISSING,2025-12-13T02:56:37.471399,
RTE_AVORI,AVORIAZ,TX,RTE_ODRE,46.1981999,6.7670528,OSM,EXACT,63.0,,63kV,OFFICIAL,,,,RTE,,Haute-Savoie,,Poste de transformation,distribution,way_283835467,0.9,,AVORI,,MISSING,2025-12-13T02:56:37.471403,
RTE_B.BAS,BAS-EN-BASSET,TX,RTE_ODRE,,,MISSING,MISSING,63.0,,63kV,OFFICIAL,,,,RTE,,Haute-Loire,,Poste de transformation,,,,,B.BAS,,MISSING,2025-12-13T02:56:37.471407,
RTE_BAGE,BAGE (STATION DE POMPAGE),TX,RTE_ODRE,,,MISSING,MISSING,63.0,,63kV,OFFICIAL,,,,RTE,,Aveyron,,Poste de transformation,,,,,BAGE,,MISSING,2025-12-13T02:56:37.471410,
RTE_BAGNE,BAGNEAUX,TX,RTE_ODRE,,,MISSING,MISSING,63.0,,63kV,OFFICIAL,,,,RTE,,Seine-et-Marne,,Poste de transformation,,,,,BAGNE,,MISSING,2025-12-13T02:56:37.471413,
RTE_BALLO,BALLON,TX,RTE_ODRE,48.0197251,0.2031888,OSM,EXACT,90.0,,90kV,OFFICIAL,,,,RTE,,Nord,,Poste de transformation,minor_distribution,way_67425828,1.0,,BALLO,,MISSING,2025-12-13T02:56:37.471417,
RTE_BAZAS,BAZAS,TX,RTE_ODRE,44.4137641,-0.218302,OSM,EXACT,63.0,,63kV,OFFICIAL,,,,RTE,,Gironde,,Poste de transformation,transmission,way_193199519,0.9,,BAZAS,,MISSING,2025-12-13T02:56:37.471420,
RTE_BERT5,BERTHOLLET,TX,RTE_ODRE,48.8065107,2.3278481,OSM,EXACT,225.0,,225kV,OFFICIAL,,,,RTE,,Hauts-de-Seine,,Poste de transformation,transmission,way_682366021,0.9,,BERT5,,MISSING,2025-12-13T02:56:37.471424,
RTE_BETHO,BETHONCOURT,TX,RTE_ODRE,,,MISSING,MISSING,63.0,,63kV,OFFICIAL,,,,RTE,,Doubs,,Poste de transformation,,,,,BETHO,,MISSING,2025-12-13T02:56:37.471429,
RTE_BEUVR,BEUVRY (LABOURSE),TX,RTE_ODRE,,,MISSING,MISSING,225.0,,225kV,OFFICIAL,,,,RTE,,Pas-de-Calais,,Poste de transformation,,,,,BEUVR,,MISSING,2025-12-13T02:56:37.471432,
RTE_BEZON,BEZON,TX,RTE_ODRE,47.9066593,-2.4171216,OSM,EXACT,225.0,,225kV,OFFICIAL,,,,RTE,,Morbihan,,Poste de transformation,transmission,way_146360239,0.9,,BEZON,,MISSING,2025-12-13T02:56:37.471437,
RTE_BISC5,BISCHWILLER,TX,RTE_ODRE,,,MISSING,MISSING,63.0,,63kV,OFFICIAL,,,,RTE,,Bas-Rhin,,Poste de transformation,,,,,BISC5,,MISSING,2025-12-13T02:56:37.471441,
RTE_BISSY,BISSY,TX,RTE_ODRE,45.5902758,5.9006445,OSM,EXACT,225.0,,225kV,OFFICIAL,,,,RTE,,Savoie,,Poste de transformation,transmission,way_56585982,0.9,,BISSY,,MISSING,2025-12-13T02:56:37.471444,
RTE_BOLOG,BOLOGNE (FORGES),TX,RTE_ODRE,,,MISSING,MISSING,63.0,,63kV,OFFICIAL,,,,RTE,,Haute-Marne,,Poste de transformation,,,,,BOLOG,,MISSING,2025-12-13T02:56:37.471447,
RTE_BONNE,BONNETERRE,TX,RTE_ODRE,45.7639152,4.8822819,OSM,EXACT,225.0,,225kV,OFFICIAL,,,,RTE,,Rhône,,Poste de transformation,distribution,way_84810304,0.9,,BONNE,,MISSING,2025-12-13T02:56:37.471451,
RTE_BRAS5,BRASSAC,TX,RTE_ODRE,,,MISSING,MISSING,63.0,,63kV,OFFICIAL,,,,RTE,,Tarn,,Poste de transformation,,,,,BRAS5,,MISSING,2025-12-13T02:56:37.471454,
RTE_BREVA,BREVANS,TX,RTE_ODRE,,,MISSING,MISSING,63.0,,63kV,OFFICIAL,,,,RTE,,Jura,,Poste de transformation,,,,,BREVA,,MISSING,2025-12-13T02:56:37.471457,
RTE_C.MAL,CREYS-MALVILLE,TX,RTE_ODRE,45.7561541,5.4664968,OSM,EXACT,45.0,,<45kV,OFFICIAL,,,,RTE,,Isère,,Poste de transformation,transmission,way_84153220,0.9,,C.MAL,,MISSING,2025-12-13T02:56:37.471461,
RTE_C.MER,CAGNES-SUR-MER,TX,RTE_ODRE,43.6611786,7.1305541,OSM,EXACT,225.0,,225kV,OFFICIAL,,,,RTE,,Alpes-Maritimes,,Poste de transformation,distribution,way_467599626,0.9,,C.MER,,MISSING,2025-12-13T02:56:37.471464,
RTE_C.ROL,CHAMP-ROLLAND,TX,RTE_ODRE,,,MISSING,MISSING,63.0,,63kV,OFFICIAL,,,,RTE,,Ardèche,,Poste de transformation,,,,,C.ROL,,MISSING,2025-12-13T02:56:37.471468,
RTE_CARQU,CARQUEIRANNE,TX,RTE_ODRE,,,MISSING,MISSING,63.0,,63kV,OFFICIAL,,,,RTE,,Var,,Poste de transformation,,,,,CARQU,,MISSING,2025-12-13T02:56:37.471471,
RTE_CARRI,CARRIERES,TX,RTE_ODRE,46.2439543,-1.0209554,OSM,EXACT,225.0,,225kV,OFFICIAL,,,,RTE,,Oise,,Poste de transformation,,node_13073195408,1.0,,CARRI,,MISSING,2025-12-13T02:56:37.471475,
RTE_CAVAI,CAVAILLON,TX,RTE_ODRE,,,MISSING,MISSING,63.0,,63kV,OFFICIAL,,,,RTE,,Bouches-du-Rhône,,Poste de transformation,,,,,CAVAI,,MISSING,2025-12-13T02:56:37.471478,
RTE_CERCE,CERCEAU,TX,RTE_ODRE,,,MISSING,MISSING,63.0,,63kV,OFFICIAL,,,,RTE,,Ardennes,,Poste de transformation,,,,,CERCE,,MISSING,2025-12-13T02:56:37.471481,
RTE_CEZY,CEZY,TX,RTE_ODRE,,,MISSING,MISSING,63.0,,63kV,OFFICIAL,,,,RTE,,Yonne,,Poste de transformation,,,,,CEZY,,MISSING,2025-12-13T02:56:37.471484,
RTE_CHAMO,CHAMONIX,TX,RTE_ODRE,45.9205673,6.8744071,OSM,EXACT,63.0,,63kV,OFFICIAL,,,,RTE,,Haute-Savoie,,Poste de transformation,distribution,way_183318491,0.9,,CHAMO,,MISSING,2025-12-13T02:56:37.471488,
RTE_CHAMP,CHAMP,TX,RTE_ODRE,45.3007777,6.2467603,OSM,EXACT,63.0,,63kV,OFFICIAL,,,,RTE,,Isère,,Poste de transformation,minor_distribution,node_3623874894,0.9,,CHAMP,,MISSING,2025-12-13T02:56:37.471494,
RTE_CHAP6,CHAPEAU,TX,RTE_ODRE,45.63716,5.1309607,OSM,EXACT,90.0,,90kV,OFFICIAL,,,,RTE,,Charente-Maritime,,Poste de transformation,minor_distribution,way_130586696,0.9,,CHAP6,,MISSING,2025-12-13T02:56:37.471497,
RTE_CHARV,CHARVIEU,TX,RTE_ODRE,,,MISSING,MISSING,63.0,,63kV,OFFICIAL,,,,RTE,,Isère,,Poste de transformation,,,,,CHARV,,MISSING,2025-12-13T02:56:37.471500,
