id,name,network_level,source,lat,lon,coord_source,coord_quality,voltage_in_kv,voltage_out_kv,voltage_levels,voltage_source,capacity_available_mw,capacity_reserved_mw,capacity_total_mw,operator,commune,departement,region,function,substation_type,osm_id,osm_match_score,osm_match_distance_m,source_id,code_insee,capacity_source,last_updated,notes
RTE_1CLAM,CLAMART,TX,RTE_ODRE,48.799454,2.2593249,OSM,EXACT,225.0,,225kV,OFFICIAL,,,,RTE,,Hauts-de-Seine,,Poste de transformation,transmission,way_116702384,1.0,,1CLAM,,MISSING,2025-12-13T03:11:38.849049,
RTE_A.HUE,ALPE-D HUEZ,TX,RTE_ODRE,,,MISSING,MISSING,63.0,,63kV,OFFICIAL,,,,RTE,,Isère,,Poste de transformation,,,,,A.HUE,,MISSING,2025-12-13T03:11:38.849084,
RTE_A.LI7,AIR-LIQUIDE (SOGIF),TX,RTE_ODRE,44.367202,4.7090766,OSM,EXACT,63.0,,63kV,OFFICIAL,,,,RTE,,Ardèche,,Poste de transformation,industrial,way_278718678,1.0,,A.LI7,,MISSING,2025-12-13T03:11:38.849092,
RTE_A.TO5,ARSENAL DE TOULON,TX,RTE_ODRE,47.9939919,0.2105709,OSM,EXACT,63.0,,63kV,OFFICIAL,,,,RTE,,Var,,Poste de transformation,minor_distribution,way_65554981,0.9,,A.TO5,,MISSING,2025-12-13T03:11:38.849098,
RTE_ALBIA,ALBIAS,TX,RTE_ODRE,,,MISSING,MISSING,63.0,,63kV,OFFICIAL,,,,RTE,,Tarn-et-Garonne,,Poste de transformation,,,,,ALBIA,,MISSING,2025-12-13T03:11:38.849106,
RTE_ALLIN,ALLINGES,TX,RTE_ODRE,,,MISSING,MISSING,225.0,,225kV,OFFICIAL,,,,RTE,,Haute-Savoie,,Poste de transformation,,,,,ALLIN,,MISSING,2025-12-13T03:11:38.849113,
RTE_ALRAN,ALRANCE,TX,RTE_ODRE,,,MISSING,MISSING,63.0,,63kV,OFFICIAL,,,,RTE,,Aveyron,,Poste de transformation,,,,,ALRAN,,MISSING,2025-12-13T03:11:38.849118,
RTE_ASASP,ASASP,TX,RTE_ODRE,,,MISSING,MISSING,63.0,,63kV,OFFICIAL,,,,RTE,,Pyrénées-Atlantiques,,Poste de transformation,,,,,ASASP,,MISSING,2025-12-13T03:11:38.849127,
RTE_AUBER,AUBERVILLE,TX,RTE_ODRE,,,MISSING,MISSING,90.0,,90kV,OFFICIAL,,,,RTE,,Seine-Maritime,,Poste de transformation,,,,,AUBER,,MISSING,2025-12-13T03:11:38.849134,
RTE_AULNA,AULNAY (-AUX-PLANCHES),TX,RTE_ODRE,,,MISSING,MISSING,90.0,,90kV,OFFICIAL,,,,RTE,,Marne,,Poste de transformation,,,,,AULNA,,MISSING,2025-12-13T03:11:38.849139,
RTE_B.AI5,BEL-AIR (CLIENT),TX,RTE_ODRE,43.7334786,-1.0741584,OSM,EXACT,90.0,,90kV,OFFICIAL,,,,RTE,,Maine-et-Loire,,Poste de transformation,minor_distribution,node_5765730836,1.0,,B.AI5,,MISSING,2025-12-13T03:11:38.849143,
RTE_BACAL,BACALAN,TX,RTE_ODRE,44.8822758,-0.5458476,OSM,EXACT,225.0,,225kV,OFFICIAL,,,,RTE,,Gironde,,Poste de transformation,transmission,way_147394004,1.0,,BACAL,,MISSING,2025-12-13T03:11:38.849147,
RTE_BALAR,BALARUC,TX,RTE_ODRE,43.446012,3.7061926,OSM,EXACT,225.0,,225kV,OFFICIAL,,,,RTE,,Hérault,,Poste de transformation,transmission,way_129830455,1.0,,BALAR,,MISSING,2025-12-13T03:11:38.849150,
RTE_BAUDR,BAUDRY,TX,RTE_ODRE,48.8722675,2.3067513,OSM,EXACT,225.0,,225kV,OFFICIAL,,,,RTE,,Hauts-de-Seine,,Poste de transformation,distribution,way_69104422,0.9,,BAUDR,,MISSING,2025-12-13T03:11:38.849154,
RTE_BESS6,BESSANGES (CLIENT),TX,RTE_ODRE,45.084841,-0.0574547,OSM,EXACT,90.0,,90kV,OFFICIAL,,,,RTE,,Gironde,,Poste de transformation,transmission,way_142348156,1.0,,BESS6,,MISSING,2025-12-13T03:11:38.849158,
RTE_BETHE,BETHENY,TX,RTE_ODRE,49.2754807,4.0418206,OSM,EXACT,63.0,,63kV,OFFICIAL,,,,RTE,,Marne,,Poste de transformation,traction,way_231743539,1.0,,BETHE,,MISSING,2025-12-13T03:11:38.849162,
RTE_BETHI,BETHISY,TX,RTE_ODRE,,,MISSING,MISSING,63.0,,63kV,OFFICIAL,,,,RTE,,Oise,,Poste de transformation,,,,,BETHI,,MISSING,2025-12-13T03:11:38.849166,
RTE_BREV7,BREVANNES,TX,RTE_ODRE,48.7579007,2.4681729,OSM,EXACT,63.0,,63kV,OFFICIAL,,,,RTE,,Val-de-Marne,,Poste de transformation,traction,way_100212217,0.9,,BREV7,,MISSING,2025-12-13T03:11:38.849170,
RTE_BXBRE,BEAUBREUIL,TX,RTE_ODRE,45.8618286,1.2809321,OSM,EXACT,90.0,,90kV,OFFICIAL,,,,RTE,,Haute-Vienne,,Poste de transformation,distribution,way_95532056,1.0,,BXBRE,,MISSING,2025-12-13T03:11:38.849174,
RTE_C.FO6,CAILLOUX-SUR-FONTAINES,TX,RTE_ODRE,45.8651501,4.8989313,OSM,EXACT,225.0,,225kV,OFFICIAL,,,,RTE,,Rhône,,Poste de transformation,transmission,way_96082284,1.0,,C.FO6,,MISSING,2025-12-13T03:11:38.849178,
RTE_C.HUI,CONDE-SUR-HUISNE,TX,RTE_ODRE,48.3868801,0.8535782,OSM,EXACT,90.0,,90kV,OFFICIAL,,,,RTE,,Orne,,Poste de transformation,traction,way_178762386,0.9,,C.HUI,,MISSING,2025-12-13T03:11:38.849182,
RTE_C.LAF,CHARLES-LAFFITTE,TX,RTE_ODRE,47.7498121,7.3679388,OSM,EXACT,90.0,,90kV,OFFICIAL,,,,RTE,,,,Poste de transformation,minor_distribution,way_186089080,0.9,,C.LAF,,MISSING,2025-12-13T03:11:38.849196,
RTE_C.REG,CHAMPS-REGNAUD,TX,RTE_ODRE,47.3526841,5.0599218,OSM,EXACT,225.0,,225kV,OFFICIAL,,,,RTE,,Côte-d'Or,,Poste de transformation,transmission,way_122061929,1.0,,C.REG,,MISSING,2025-12-13T03:11:38.849200,
RTE_C.ROI,CHOISY-LE-ROI,TX,RTE_ODRE,48.7724505,2.408195,OSM,EXACT,63.0,,63kV,OFFICIAL,,,,RTE,,Val-de-Marne,,Poste de transformation,distribution,way_491948658,1.0,,C.ROI,,MISSING,2025-12-13T03:11:38.849204,
RTE_CANCO,CANCON,TX,RTE_ODRE,,,MISSING,MISSING,63.0,,63kV,OFFICIAL,,,,RTE,,Lot-et-Garonne,,Poste de transformation,,,,,CANCO,,MISSING,2025-12-13T03:11:38.849208,
RTE_CHAG5,CHAGNOT,TX,RTE_ODRE,,,MISSING,MISSING,90.0,,90kV,OFFICIAL,,,,RTE,,Cher,,Poste de transformation,,,,,CHAG5,,MISSING,2025-12-13T03:11:38.849211,
RTE_CHAL5,CHALON (S.N.C.F.),TX,RTE_ODRE,46.7629917,4.8610856,OSM,EXACT,63.0,,63kV,OFFICIAL,,,,RTE,,Saône-et-Loire,,Poste de transformation,transmission,way_122568639,1.0,,CHAL5,,MISSING,2025-12-13T03:11:38.849215,
RTE_CHAL6,CHALON (KODAK-PATHE),TX,RTE_ODRE,46.7629917,4.8610856,OSM,EXACT,63.0,,63kV,OFFICIAL,,,,RTE,,Saône-et-Loire,,Poste de transformation,transmission,way_122568639,1.0,,CHAL6,,MISSING,2025-12-13T03:11:38.849219,
RTE_CHAV5,CHAVAGNES,TX,RTE_ODRE,46.8697065,-1.2619114,OSM,EXACT,90.0,,90kV,OFFICIAL,,,,RTE,,Vendée,,Poste de transformation,distribution,way_179978382,1.0,,CHAV5,,MISSING,2025-12-13T03:11:38.849222,
RTE_CHED5,CHEDDE (S.N.C.F.),TX,RTE_ODRE,45.9193523,6.7125897,OSM,EXACT,45.0,,45kV,OFFICIAL,,,,RTE,,Haute-Savoie,,Poste de transformation,minor_distribution,way_78678087,0.9,,CHED5,,MISSING,2025-12-13T03:11:38.849226,
RTE_COISE,COISELET,TX,RTE_ODRE,,,MISSING,MISSING,63.0,,63kV,OFFICIAL,,,,RTE,,Jura,,Poste de transformation,,,,,COISE,,MISSING,2025-12-13T03:11:38.849229,
RTE_CONTA,CONTAMINE,TX,RTE_ODRE,45.9723418,6.387337,OSM,EXACT,225.0,,225kV,OFFICIAL,,,,RTE,,Savoie,,Poste de transformation,minor_distribution,node_3732312395,1.0,,CONTA,,MISSING,2025-12-13T03:11:38.849233,
RTE_CORB7,CORBEIL,TX,RTE_ODRE,,,MISSING,MISSING,63.0,,63kV,OFFICIAL,,,,RTE,,Essonne,,Poste de transformation,,,,,CORB7,,MISSING,2025-12-13T03:11:38.849236,
RTE_CORB9,CORBIGNY,TX,RTE_ODRE,,,MISSING,MISSING,63.0,,63kV,OFFICIAL,,,,RTE,,Nièvre,,Poste de transformation,,,,,CORB9,,MISSING,2025-12-13T03:11:38.849240,
RTE_COTE,COTE (LA),TX,RTE_ODRE,45.2548152,4.4153524,OSM,EXACT,90.0,,90kV,OFFICIAL,,,,RTE,,Creuse,,Poste de transformation,minor_distribution,node_5893414173,1.0,,COTE,,MISSING,2025-12-13T03:11:38.849243,
RTE_COTON,COTONI,TX,RTE_ODRE,49.3705085,1.1082291,OSM,EXACT,90.0,,90kV,OFFICIAL,,,,RTE,,Seine-Maritime,,Poste de transformation,transmission,way_166621362,1.0,,COTON,,MISSING,2025-12-13T03:11:38.849247,
RTE_COUR,COUR (LA),TX,RTE_ODRE,48.0399214,0.1871082,OSM,EXACT,90.0,,90kV,OFFICIAL,,,,RTE,,Vienne,,Poste de transformation,minor_distribution,node_8612779466,1.0,,COUR,,MISSING,2025-12-13T03:11:38.849253,
RTE_CPBLA,CHAMPBLAIN,TX,RTE_ODRE,45.2170398,4.812158,OSM,EXACT,225.0,,225kV,OFFICIAL,,,,RTE,,Ardèche,,Poste de transformation,industrial,way_129221790,1.0,,CPBLA,,MISSING,2025-12-13T03:11:38.849257,
RTE_CREMA,CREMADES,TX,RTE_ODRE,,,MISSING,MISSING,63.0,,63kV,OFFICIAL,,,,RTE,,Vaucluse,,Poste de transformation,,,,,CREMA,,MISSING,2025-12-13T03:11:38.849261,
RTE_CROI6,CROISIERE,TX,RTE_ODRE,44.2710062,4.6975759,OSM,EXACT,225.0,,225kV,OFFICIAL,,,,RTE,,Gard,,Poste de transformation,traction,way_278718504,0.9,,CROI6,,MISSING,2025-12-13T03:11:38.849265,
RTE_CTAUD,CHATEAUDUN,TX,RTE_ODRE,46.1263072,3.4385075,OSM,EXACT,90.0,,90kV,OFFICIAL,,,,RTE,,Eure-et-Loir,,Poste de transformation,minor_distribution,way_243007459,1.0,,CTAUD,,MISSING,2025-12-13T03:11:38.849268,
RTE_CTAUR,CHATEAURENARD,TX,RTE_ODRE,43.86425,4.8568643,OSM,EXACT,225.0,,225kV,OFFICIAL,,,,RTE,,Bouches-du-Rhône,,Poste de transformation,transmission,way_135282004,1.0,,CTAUR,,MISSING,2025-12-13T03:11:38.849272,
RTE_CTLAR,CHATELARD (LE),TX,RTE_ODRE,45.1510936,4.3545094,OSM,EXACT,45.0,,45kV,OFFICIAL,,,,RTE,,Savoie,,Poste de transformation,minor_distribution,node_5697132216,0.9,,CTLAR,,MISSING,2025-12-13T03:11:38.849276,
RTE_CXMO5,CHAUMONT,TX,RTE_ODRE,46.6317371,0.3591442,OSM,EXACT,63.0,,63kV,OFFICIAL,,,,RTE,,Haute-Marne,,Poste de transformation,transmission,way_116475790,1.0,,CXMO5,,MISSING,2025-12-13T03:11:38.849279,
RTE_CXMON,CHAUMONT (CHASSENEUIL-DU-POITOU),TX,RTE_ODRE,46.6317371,0.3591442,OSM,EXACT,90.0,,90kV,OFFICIAL,,,,RTE,,Vienne,,Poste de transformation,transmission,way_116475790,1.0,,CXMON,,MISSING,2025-12-13T03:11:38.849283,
RTE_DAMBR,DAMBRON,TX,RTE_ODRE,48.1067677,1.8558404,OSM,EXACT,400.0,,400kV,OFFICIAL,,,,RTE,,Eure-et-Loir,,Poste de transformation,transmission,way_86260748,1.0,,DAMBR,,MISSING,2025-12-13T03:11:38.849287,
RTE_DIEUL,DIEULEFIT,TX,RTE_ODRE,,,MISSING,MISSING,63.0,,63kV,OFFICIAL,,,,RTE,,Drôme,,Poste de transformation,,,,,DIEUL,,MISSING,2025-12-13T03:11:38.849290,
RTE_DOMPI,DOMPIERRE,TX,RTE_ODRE,46.5164292,3.6923002,OSM,EXACT,63.0,,63kV,OFFICIAL,,,,RTE,,Allier,,Poste de transformation,transmission,way_137414494,1.0,,DOMPI,,MISSING,2025-12-13T03:11:38.849294,
RTE_DURAN,DURANNE (LA),TX,RTE_ODRE,43.4854038,5.3553705,OSM,EXACT,225.0,,225kV,OFFICIAL,,,,RTE,,Bouches-du-Rhône,,Poste de transformation,transmission,way_27428702,0.9,,DURAN,,MISSING,2025-12-13T03:11:38.849297,
RTE_DUROL,DUROLLE,TX,RTE_ODRE,,,MISSING,MISSING,63.0,,63kV,OFFICIAL,,,,RTE,,Puy-de-Dôme,,Poste de transformation,,,,,DUROL,,MISSING,2025-12-13T03:11:38.849301,
RTE_ENTRE,ENTREVAUX,TX,RTE_ODRE,,,MISSING,MISSING,150.0,,150kV,OFFICIAL,,,,RTE,,Alpes-de-Haute-Provence,,Poste de transformation,,,,,ENTRE,,MISSING,2025-12-13T03:11:38.849305,
RTE_EPIN5,EPINAY-SOUS-SENART,TX,RTE_ODRE,48.6086642,2.5848089,OSM,EXACT,63.0,,63kV,OFFICIAL,,,,RTE,,Essonne,,Poste de transformation,transmission,way_118339972,0.9,,EPIN5,,MISSING,2025-12-13T03:11:38.849310,
RTE_ESPAL,ESPALUNGUE,TX,RTE_ODRE,42.9812909,-0.4162522,OSM,EXACT,63.0,,63kV,OFFICIAL,,,,RTE,,Pyrénées-Atlantiques,,Poste de transformation,generation,way_741766116,1.0,,ESPAL,,MISSING,2025-12-13T03:11:38.849314,
RTE_ESPI5,ESPIERS (LES),TX,RTE_ODRE,48.2360661,1.7747444,OSM,EXACT,225.0,,225kV,OFFICIAL,,,,RTE,,Eure-et-Loir,,Poste de transformation,industrial,way_197040234,0.9,,ESPI5,,MISSING,2025-12-13T03:11:38.849318,
RTE_EUROP,EUROPORT,TX,RTE_ODRE,,,MISSING,MISSING,90.0,,90kV,OFFICIAL,,,,RTE,,Marne,,Poste de transformation,,,,,EUROP,,MISSING,2025-12-13T03:11:38.849324,
RTE_FLOGN,FLOGNY,TX,RTE_ODRE,,,MISSING,MISSING,63.0,,63kV,OFFICIAL,,,,RTE,,Yonne,,Poste de transformation,,,,,FLOGN,,MISSING,2025-12-13T03:11:38.849329,
RTE_FRESN,FRESNAY,TX,RTE_ODRE,48.2999028,0.0211452,OSM,EXACT,90.0,,90kV,OFFICIAL,,,,RTE,,Sarthe,,Poste de transformation,yes,way_169645725,1.0,,FRESN,,MISSING,2025-12-13T03:11:38.849335,
RTE_FTAIN,FONTAINES (S.N.C.F.),TX,RTE_ODRE,48.7519813,2.3498538,OSM,EXACT,63.0,,63kV,OFFICIAL,,,,RTE,,Saône-et-Loire,,Poste de transformation,minor_distribution,way_126143926,1.0,,FTAIN,,MISSING,2025-12-13T03:11:38.849340,
RTE_FUSTE,FUSTEL,TX,RTE_ODRE,48.5750382,7.7512996,OSM,EXACT,63.0,,63kV,OFFICIAL,,,,RTE,,Bas-Rhin,,Poste de transformation,distribution,way_40582732,1.0,,FUSTE,,MISSING,2025-12-13T03:11:38.849346,
RTE_GANGE,GANGES,TX,RTE_ODRE,43.9458667,3.7242428,OSM,EXACT,225.0,,225kV,OFFICIAL,,,,RTE,,Gard,,Poste de transformation,transmission,way_121087628,1.0,,GANGE,,MISSING,2025-12-13T03:11:38.849352,
RTE_GAUDI,GAUDIERE (LA),TX,RTE_ODRE,43.2410682,2.6773856,OSM,EXACT,400.0,,400kV,OFFICIAL,,,,RTE,,Aude,,Poste de transformation,transmission,way_98890904,0.9,,GAUDI,,MISSING,2025-12-13T03:11:38.849356,
RTE_GERE,GERE,TX,RTE_ODRE,,,MISSING,MISSING,63.0,,63kV,OFFICIAL,,,,RTE,,Rhône,,Poste de transformation,,,,,GERE,,MISSING,2025-12-13T03:11:38.849360,
RTE_GESSE,GESSE,TX,RTE_ODRE,42.7743584,2.1653702,OSM,EXACT,63.0,,63kV,OFFICIAL,,,,RTE,,Aude,,Poste de transformation,transmission,way_1236930261,1.0,,GESSE,,MISSING,2025-12-13T03:11:38.849364,
RTE_GUITA,GUITAYNE,TX,RTE_ODRE,44.7625665,-0.6678651,OSM,EXACT,63.0,,63kV,OFFICIAL,,,,RTE,,Gironde,,Poste de transformation,,way_222545697,1.0,,GUITA,,MISSING,2025-12-13T03:11:38.849367,
RTE_GUNDE,GUNDERSHOFFEN,TX,RTE_ODRE,,,MISSING,MISSING,63.0,,63kV,OFFICIAL,,,,RTE,,Bas-Rhin,,Poste de transformation,,,,,GUNDE,,MISSING,2025-12-13T03:11:38.849371,
RTE_HAUT5,HAUTELUCE,TX,RTE_ODRE,,,MISSING,MISSING,45.0,,45kV,OFFICIAL,,,,RTE,,Savoie,,Poste de transformation,,,,,HAUT5,,MISSING,2025-12-13T03:11:38.849375,
RTE_HERBI,HERBIERS (LES),TX,RTE_ODRE,,,MISSING,MISSING,90.0,,90kV,OFFICIAL,,,,RTE,,Vendée,,Poste de transformation,,,,,HERBI,,MISSING,2025-12-13T03:11:38.849378,
RTE_JANE,JANE,TX,RTE_ODRE,48.7782636,2.4285639,OSM,EXACT,63.0,,63kV,OFFICIAL,,,,RTE,,Bouches-du-Rhône,,Poste de transformation,minor_distribution,node_7283503120,1.0,,JANE,,MISSING,2025-12-13T03:11:38.849390,
RTE_JEUXE,JEUXEY,TX,RTE_ODRE,48.1888108,6.4880835,OSM,EXACT,225.0,,225kV,OFFICIAL,,,,RTE,,Vosges,,Poste de transformation,transmission,way_121024004,1.0,,JEUXE,,MISSING,2025-12-13T03:11:38.849394,
RTE_JOUQU,JOUQUES,TX,RTE_ODRE,,,MISSING,MISSING,63.0,,63kV,OFFICIAL,,,,RTE,,Vaucluse,,Poste de transformation,,,,,JOUQU,,MISSING,2025-12-13T03:11:38.849397,
RTE_L.MON,LAURAC-MONTREAL,TX,RTE_ODRE,42.814828,0.289235,OSM,EXACT,63.0,,63kV,OFFICIAL,,,,RTE,,Ardèche,,Poste de transformation,minor_distribution,node_1845269421,0.9,,L.MON,,MISSING,2025-12-13T03:11:38.849401,
RTE_L.VIE,LUNEL-VIEL,TX,RTE_ODRE,43.6805053,4.0887269,OSM,EXACT,63.0,,63kV,OFFICIAL,,,,RTE,,Hérault,,Poste de transformation,distribution,way_142676085,1.0,,L.VIE,,MISSING,2025-12-13T03:11:38.849404,
RTE_LACQ,LACQ (S.N.C.F.),TX,RTE_ODRE,,,MISSING,MISSING,63.0,,63kV,OFFICIAL,,,,RTE,,Pyrénées-Atlantiques,,Poste de transformation,,,,,LACQ,,MISSING,2025-12-13T03:11:38.849408,
RTE_LAFIG,LAFIGERE,TX,RTE_ODRE,,,MISSING,MISSING,225.0,,225kV,OFFICIAL,,,,RTE,,Lozère,,Poste de transformation,,,,,LAFIG,,MISSING,2025-12-13T03:11:38.849412,
RTE_LAUTE,LAUTERBOURG,TX,RTE_ODRE,,,MISSING,MISSING,63.0,,63kV,OFFICIAL,,,,RTE,,Bas-Rhin,,Poste de transformation,,,,,LAUTE,,MISSING,2025-12-13T03:11:38.849415,
RTE_LAXOU,LAXOU,TX,RTE_ODRE,48.6943462,6.1217526,OSM,EXACT,63.0,,63kV,OFFICIAL,,,,RTE,,Meurthe-et-Moselle,,Poste de transformation,,way_339580529,1.0,,LAXOU,,MISSING,2025-12-13T03:11:38.849418,
RTE_LISLO,LISLOCH,TX,RTE_ODRE,47.8519092,-3.5842979,OSM,EXACT,63.0,,63kV,OFFICIAL,,,,RTE,,Finistère,,Poste de transformation,distribution,way_337672993,1.0,,LISLO,,MISSING,2025-12-13T03:11:38.849422,
RTE_LONNY,LONNY,TX,RTE_ODRE,49.8274761,4.5728722,OSM,EXACT,400.0,,400kV,OFFICIAL,,,,RTE,,Ardennes,,Poste de transformation,transmission,way_82825438,1.0,,LONNY,,MISSING,2025-12-13T03:11:38.849426,
RTE_M.BL6,MONTAIGUT LE BLANC,TX,RTE_ODRE,45.7455615,6.2956625,OSM,EXACT,63.0,,63kV,OFFICIAL,,,,RTE,,Puy-de-Dôme,,Poste de transformation,minor_distribution,way_118333547,0.9,,M.BL6,,MISSING,2025-12-13T03:11:38.849430,
RTE_M.LOU,MARIE-LOUISE,TX,RTE_ODRE,47.8308409,7.2728323,OSM,EXACT,63.0,,63kV,OFFICIAL,,,,RTE,,Haut-Rhin,,Poste de transformation,,way_335813389,0.9,,M.LOU,,MISSING,2025-12-13T03:11:38.849433,
RTE_MAGNY,MAGNY(-SUR TILLE),TX,RTE_ODRE,46.2552897,6.0930314,OSM,EXACT,225.0,,225kV,OFFICIAL,,,,RTE,,Côte-d'Or,,Poste de transformation,minor_distribution,way_68887305,1.0,,MAGNY,,MISSING,2025-12-13T03:11:38.849437,
RTE_MARIE,MARIENAU,TX,RTE_ODRE,49.1742367,6.8666308,OSM,EXACT,63.0,,63kV,OFFICIAL,,,,RTE,,,,Poste de transformation,distribution,way_136899252,1.0,,MARIE,,MISSING,2025-12-13T03:11:38.849442,
RTE_MAURS,MAURS,TX,RTE_ODRE,,,MISSING,MISSING,63.0,,63kV,OFFICIAL,,,,RTE,,Cantal,,Poste de transformation,,,,,MAURS,,MISSING,2025-12-13T03:11:38.849447,
RTE_MAZAR,MAZARGUES,TX,RTE_ODRE,43.2541327,5.4041225,OSM,EXACT,225.0,,225kV,OFFICIAL,,,,RTE,,,,Poste de transformation,distribution,way_733773951,1.0,,MAZAR,,MISSING,2025-12-13T03:11:38.849451,
RTE_MERCU,MERCUS,TX,RTE_ODRE,42.8781807,1.6273408,OSM,EXACT,63.0,,63kV,OFFICIAL,,,,RTE,,Ariège,,Poste de transformation,industrial,way_352407704,1.0,,MERCU,,MISSING,2025-12-13T03:11:38.849456,
RTE_METZ6,METZANGE,TX,RTE_ODRE,49.3613914,6.0997044,OSM,EXACT,63.0,,63kV,OFFICIAL,,,,RTE,,Moselle,,Poste de transformation,distribution,way_384043848,1.0,,METZ6,,MISSING,2025-12-13T03:11:38.849460,
RTE_MEYRA,MEYRARGUES,TX,RTE_ODRE,43.6437324,5.5137022,OSM,EXACT,63.0,,63kV,OFFICIAL,,,,RTE,,Bouches-du-Rhône,,Poste de transformation,transmission,way_88969659,1.0,,MEYRA,,MISSING,2025-12-13T03:11:38.849463,
RTE_MIRAI,MIRAIL (LE),TX,RTE_ODRE,44.5797015,-0.029903,OSM,EXACT,63.0,,63kV,OFFICIAL,,,,RTE,,Gironde,,Poste de transformation,,way_601835799,1.0,,MIRAI,,MISSING,2025-12-13T03:11:38.849469,
RTE_MORB5,MORBRAS (POSTE SOURCE),TX,RTE_ODRE,48.778795,2.6484339,OSM,EXACT,225.0,,225kV,OFFICIAL,,,,RTE,,Val-de-Marne,,Poste de transformation,transmission,way_27266058,1.0,,MORB5,,MISSING,2025-12-13T03:11:38.849473,
RTE_MORIH,MORIHAN,TX,RTE_ODRE,47.9401521,-1.6400689,OSM,EXACT,225.0,,225kV,OFFICIAL,,,,RTE,,Ille-et-Vilaine,,Poste de transformation,transmission,way_177964767,1.0,,MORIH,,MISSING,2025-12-13T03:11:38.849476,
RTE_MOUL8,MOULINEAUX,TX,RTE_ODRE,48.8262775,2.2686049,OSM,EXACT,225.0,,225kV,OFFICIAL,,,,RTE,,Hauts-de-Seine,,Poste de transformation,transmission,way_658561056,1.0,,MOUL8,,MISSING,2025-12-13T03:11:38.849479,
RTE_MQIS,MARQUIS (LE),TX,RTE_ODRE,45.0104511,-0.551231,OSM,EXACT,400.0,,400kV,OFFICIAL,,,,RTE,,Gironde,,Poste de transformation,transmission,way_105840884,0.9,,MQIS,,MISSING,2025-12-13T03:11:38.849482,
RTE_MQIS5,MARQUIS (LE) (ENGRAIS D AMBES),TX,RTE_ODRE,45.0104511,-0.551231,OSM,EXACT,63.0,,63kV,OFFICIAL,,,,RTE,,Gironde,,Poste de transformation,transmission,way_105840884,1.0,,MQIS5,,MISSING,2025-12-13T03:11:38.849485,
RTE_MQISA,MARQUISANE (LA),TX,RTE_ODRE,,,MISSING,MISSING,63.0,,63kV,OFFICIAL,,,,RTE,,Var,,Poste de transformation,,,,,MQISA,,MISSING,2025-12-13T03:11:38.849489,
RTE_MTALI,MONTALIEU,TX,RTE_ODRE,45.8074137,5.4025212,OSM,EXACT,63.0,,63kV,OFFICIAL,,,,RTE,,Isère,,Poste de transformation,transmission,way_133763152,0.9,,MTALI,,MISSING,2025-12-13T03:11:38.849493,
RTE_MTEYN,MONTEYNARD,TX,RTE_ODRE,44.9641507,5.6852373,OSM,EXACT,225.0,,225kV,OFFICIAL,,,,RTE,,Isère,,Poste de transformation,transition,way_402057119,1.0,,MTEYN,,MISSING,2025-12-13T03:11:38.849496,
RTE_MTFO5,MONTFORT (BEDEE),TX,RTE_ODRE,48.1482386,-1.9475591,OSM,EXACT,90.0,,90kV,OFFICIAL,,,,RTE,,Ille-et-Vilaine,,Poste de transformation,,way_54268381,1.0,,MTFO5,,MISSING,2025-12-13T03:11:38.849502,
RTE_MTRIC,MONTRICHER,TX,RTE_ODRE,,,MISSING,MISSING,45.0,,45kV,OFFICIAL,,,,RTE,,Savoie,,Poste de transformation,,,,,MTRIC,,MISSING,2025-12-13T03:11:38.849505,
RTE_MTTES,MONTTESSUY,TX,RTE_ODRE,,,MISSING,MISSING,63.0,,63kV,OFFICIAL,,,,RTE,,Paris,,Poste de transformation,,,,,MTTES,,MISSING,2025-12-13T03:11:38.849512,
RTE_NAVES,NAVES,TX,RTE_ODRE,,,MISSING,MISSING,90.0,,90kV,OFFICIAL,,,,RTE,,Corrèze,,Poste de transformation,,,,,NAVES,,MISSING,2025-12-13T03:11:38.849516,
RTE_NEY,NEY,TX,RTE_ODRE,48.8975632,2.3479833,OSM,EXACT,225.0,,225kV,OFFICIAL,,,,RTE,,Hauts-de-Seine,,Poste de transformation,traction,way_49338373,0.9,,NEY,,MISSING,2025-12-13T03:11:38.849519,
RTE_NOVIL,NOVILLARS,TX,RTE_ODRE,,,MISSING,MISSING,63.0,,63kV,OFFICIAL,,,,RTE,,Doubs,,Poste de transformation,,,,,NOVIL,,MISSING,2025-12-13T03:11:38.849524,
RTE_ORANG,ORANGERIE (L),TX,RTE_ODRE,48.5957955,7.7731052,OSM,EXACT,225.0,,225kV,OFFICIAL,,,,RTE,,Vienne,,Poste de transformation,distribution,way_41685974,1.0,,ORANG,,MISSING,2025-12-13T03:11:38.849528,
RTE_P.ABB,PONT-L ABBE,TX,RTE_ODRE,45.1811025,3.0558347,OSM,EXACT,63.0,,63kV,OFFICIAL,,,,RTE,,Finistère,,Poste de transformation,minor_distribution,node_2509899490,0.9,,P.ABB,,MISSING,2025-12-13T03:11:38.849532,
RTE_P.FOR,PETITE-FORET,TX,RTE_ODRE,47.9450787,1.9309196,OSM,EXACT,63.0,,63kV,OFFICIAL,,,,RTE,,Nord,,Poste de transformation,minor_distribution,way_246976687,0.9,,P.FOR,,MISSING,2025-12-13T03:11:38.849536,
RTE_P.RO5,PEAGE-DE-ROUSSILLON-NORD,TX,RTE_ODRE,43.966428,4.1231996,OSM,EXACT,63.0,,63kV,OFFICIAL,,,,RTE,,Loire,,Poste de transformation,minor_distribution,node_7578251774,0.9,,P.RO5,,MISSING,2025-12-13T03:11:38.849540,
RTE_P.SAO,POUILLY-SUR-SAONE,TX,RTE_ODRE,47.0101205,5.1197522,OSM,EXACT,63.0,,63kV,OFFICIAL,,,,RTE,,Côte-d'Or,,Poste de transformation,,way_127720780,1.0,,P.SAO,,MISSING,2025-12-13T03:11:38.849544,
RTE_PERCH,PERCHE (LA),TX,RTE_ODRE,46.1428477,3.4526392,OSM,EXACT,63.0,,63kV,OFFICIAL,,,,RTE,,Pyrénées-Orientales,,Poste de transformation,minor_distribution,way_133448524,1.0,,PERCH,,MISSING,2025-12-13T03:11:38.849547,
RTE_PINON,PINON,TX,RTE_ODRE,,,MISSING,MISSING,63.0,,63kV,OFFICIAL,,,,RTE,,Aisne,,Poste de transformation,,,,,PINON,,MISSING,2025-12-13T03:11:38.849551,
RTE_PORCH,PORCHEVILLE,TX,RTE_ODRE,48.971347,1.7625486,OSM,EXACT,225.0,,225kV,OFFICIAL,,,,RTE,,Yvelines,,Poste de transformation,transmission,way_89022080,1.0,,PORCH,,MISSING,2025-12-13T03:11:38.849555,
RTE_PTCH5,PONTCHARRA,TX,RTE_ODRE,,,MISSING,MISSING,63.0,,63kV,OFFICIAL,,,,RTE,,Isère,,Poste de transformation,,,,,PTCH5,,MISSING,2025-12-13T03:11:38.849559,
RTE_PURPA,PURPAN,TX,RTE_ODRE,43.6135947,1.3980038,OSM,EXACT,63.0,,63kV,OFFICIAL,,,,RTE,,Haute-Garonne,,Poste de transformation,industrial,way_599457742,1.0,,PURPA,,MISSING,2025-12-13T03:11:38.849564,
RTE_RAVEL,RAVELLE (LA),TX,RTE_ODRE,46.52204,1.5118927,OSM,EXACT,90.0,,90kV,OFFICIAL,,,,RTE,,Indre,,Poste de transformation,traction,way_276269831,0.9,,RAVEL,,MISSING,2025-12-13T03:11:38.849568,
RTE_RESOL,RESOLUT,TX,RTE_ODRE,,,MISSING,MISSING,63.0,,63kV,OFFICIAL,,,,RTE,,Landes,,Poste de transformation,,,,,RESOL,,MISSING,2025-12-13T03:11:38.849572,
RTE_ROMEL,ROMELET,TX,RTE_ODRE,47.280784,5.0391623,OSM,EXACT,63.0,,63kV,OFFICIAL,,,,RTE,,Côte-d'Or,,Poste de transformation,distribution,way_127367565,1.0,,ROMEL,,MISSING,2025-12-13T03:11:38.849575,
RTE_ROMEN,ROMENAY,TX,RTE_ODRE,46.5049314,5.050841,OSM,EXACT,63.0,,63kV,OFFICIAL,,,,RTE,,Ain,,Poste de transformation,,way_242627359,1.0,,ROMEN,,MISSING,2025-12-13T03:11:38.849579,
RTE_ROURE,ROURE,TX,RTE_ODRE,43.5493057,4.3993294,OSM,EXACT,63.0,,63kV,OFFICIAL,,,,RTE,,Gard,,Poste de transformation,distribution,way_183857171,1.0,,ROURE,,MISSING,2025-12-13T03:11:38.849585,
RTE_RUFFE,RUFFE,TX,RTE_ODRE,43.6857124,3.1784171,OSM,EXACT,63.0,,63kV,OFFICIAL,,,,RTE,,Hérault,,Poste de transformation,distribution,way_153272863,1.0,,RUFFE,,MISSING,2025-12-13T03:11:38.849588,
RTE_SABRA,SABRAN,TX,RTE_ODRE,44.1589734,4.5417364,OSM,EXACT,63.0,,63kV,OFFICIAL,,,,RTE,,Gard,,Poste de transformation,distribution,way_239366637,1.0,,SABRA,,MISSING,2025-12-13T03:11:38.849592,
RTE_SALET,SALETTES,TX,RTE_ODRE,45.1223805,4.2879912,OSM,EXACT,63.0,,63kV,OFFICIAL,,,,RTE,,Haute-Loire,,Poste de transformation,minor_distribution,node_5894947231,1.0,,SALET,,MISSING,2025-12-13T03:11:38.849595,
RTE_SALMO,SALMONPRE,TX,RTE_ODRE,,,MISSING,MISSING,63.0,,63kV,OFFICIAL,,,,RTE,,Meuse,,Poste de transformation,,,,,SALMO,,MISSING,2025-12-13T03:11:38.849599,
RTE_SAMOI,SAMOIS,TX,RTE_ODRE,,,MISSING,MISSING,63.0,,63kV,OFFICIAL,,,,RTE,,Seine-et-Marne,,Poste de transformation,,,,,SAMOI,,MISSING,2025-12-13T03:11:38.849603,
RTE_SSALA,STE-ALAUZIE,TX,RTE_ODRE,,,MISSING,MISSING,63.0,,63kV,OFFICIAL,,,,RTE,,Lot,,Poste de transformation,,,,,SSALA,,MISSING,2025-12-13T03:11:38.849607,
RTE_SSFL8,ST-FLOUR,TX,RTE_ODRE,,,MISSING,MISSING,63.0,,63kV,OFFICIAL,,,,RTE,,Cantal,,Poste de transformation,,,,,SSFL8,,MISSING,2025-12-13T03:11:38.849611,
RTE_SSLAC,STE-HELENE-DU-LAC,TX,RTE_ODRE,,,MISSING,MISSING,63.0,,63kV,OFFICIAL,,,,RTE,,Isère,,Poste de transformation,,,,,SSLAC,,MISSING,2025-12-13T03:11:38.849614,
RTE_SSMAM,ST-MAMMES,TX,RTE_ODRE,,,MISSING,MISSING,63.0,,63kV,OFFICIAL,,,,RTE,,Seine-et-Marne,,Poste de transformation,,,,,SSMAM,,MISSING,2025-12-13T03:11:38.849618,
RTE_SSMAX,STE-MAXENCE,TX,RTE_ODRE,,,MISSING,MISSING,63.0,,63kV,OFFICIAL,,,,RTE,,Oise,,Poste de transformation,,,,,SSMAX,,MISSING,2025-12-13T03:11:38.849621,
RTE_SSMO6,ST-PIERRE-LE-MOUTIER,TX,RTE_ODRE,43.6975939,7.0019901,OSM,EXACT,63.0,,63kV,OFFICIAL,,,,RTE,,Nièvre,,Poste de transformation,,way_1031016611,0.9,,SSMO6,,MISSING,2025-12-13T03:11:38.849627,
RTE_SSMRI,ST-MAURICE,TX,RTE_ODRE,45.9648306,4.0100421,OSM,EXACT,63.0,,63kV,OFFICIAL,,,,RTE,,Hautes-Alpes,,Poste de transformation,,node_2928082503,0.9,,SSMRI,,MISSING,2025-12-13T03:11:38.849630,
RTE_SSSA7,ST-SAUVEUR (CLIENT),TX,RTE_ODRE,48.1682212,-2.6266901,OSM,EXACT,63.0,,63kV,OFFICIAL,,,,RTE,,Lozère,,Poste de transformation,distribution,way_201768702,0.9,,SSSA7,,MISSING,2025-12-13T03:11:38.849634,
RTE_SSSER,ST-SERNIN,TX,RTE_ODRE,,,MISSING,MISSING,63.0,,63kV,OFFICIAL,,,,RTE,,Haute-Garonne,,Poste de transformation,,,,,SSSER,,MISSING,2025-12-13T03:11:38.849637,
RTE_SSVAU,ST-PARRES-LES-VAUDES,TX,RTE_ODRE,,,MISSING,MISSING,63.0,,63kV,OFFICIAL,,,,RTE,,Aube,,Poste de transformation,,,,,SSVAU,,MISSING,2025-12-13T03:11:38.849641,
RTE_SSVI6,ST-MARTIN-LE-VIEUX,TX,RTE_ODRE,45.1684803,4.4157859,OSM,EXACT,90.0,,90kV,OFFICIAL,,,,RTE,,Haute-Vienne,,Poste de transformation,minor_distribution,node_5770405663,0.9,,SSVI6,,MISSING,2025-12-13T03:11:38.849644,
RTE_STEAM,STEAM (H.B.L.),TX,RTE_ODRE,,,MISSING,MISSING,63.0,,63kV,OFFICIAL,,,,RTE,,Moselle,,Poste de transformation,,,,,STEAM,,MISSING,2025-12-13T03:11:38.849649,
RTE_SUISS,SUISSES (LES),TX,RTE_ODRE,48.8036125,2.2988139,OSM,EXACT,63.0,,63kV,OFFICIAL,,,,RTE,,Hauts-de-Seine,,Poste de transformation,traction,way_171995980,0.9,,SUISS,,MISSING,2025-12-13T03:11:38.849653,
RTE_T.CHA,TONNAY-CHARENTE,TX,RTE_ODRE,45.9504083,-0.9231785,OSM,EXACT,90.0,,90kV,OFFICIAL,,,,RTE,,Charente-Maritime,,Poste de transformation,,way_155194737,1.0,,T.CHA,,MISSING,2025-12-13T03:11:38.849657,
RTE_T.CRA,TERMINAL DE LA CRAU,TX,RTE_ODRE,,,MISSING,MISSING,63.0,,63kV,OFFICIAL,,,,RTE,,Bouches-du-Rhône,,Poste de transformation,,,,,T.CRA,,MISSING,2025-12-13T03:11:38.849661,
RTE_TECH5,TECHNOCENTRE,TX,RTE_ODRE,48.7570339,2.0820051,OSM,EXACT,63.0,,63kV,OFFICIAL,,,,RTE,,Yvelines,,Poste de transformation,industrial,way_823872756,0.9,,TECH5,,MISSING,2025-12-13T03:11:38.849664,
RTE_TEMP6,TEMPLE (LE)(CLIENT),TX,RTE_ODRE,48.893779,2.4130241,OSM,EXACT,45.0,,45kV,OFFICIAL,,,,RTE,,Savoie,,Poste de transformation,minor_distribution,node_7178216011,1.0,,TEMP6,,MISSING,2025-12-13T03:11:38.849667,
RTE_TENDR,TENDRECOURT,TX,RTE_ODRE,49.7347529,4.8409408,OSM,EXACT,63.0,,63kV,OFFICIAL,,,,RTE,,Ardennes,,Poste de transformation,distribution,way_309255400,1.0,,TENDR,,MISSING,2025-12-13T03:11:38.849671,
RTE_TERNO,TERNOISE,TX,RTE_ODRE,,,MISSING,MISSING,90.0,,90kV,OFFICIAL,,,,RTE,,Pas-de-Calais,,Poste de transformation,,,,,TERNO,,MISSING,2025-12-13T03:11:38.849674,
RTE_TERR6,TERRETTE,TX,RTE_ODRE,49.1613608,-1.1875148,OSM,EXACT,400.0,,400kV,OFFICIAL,,,,RTE,,Manche,,Poste de transformation,transmission,way_85867971,1.0,,TERR6,,MISSING,2025-12-13T03:11:38.849680,
RTE_THIO6,THIONVILLE (USINOR ACIERIES),TX,RTE_ODRE,48.3512749,2.0343319,OSM,EXACT,63.0,,63kV,OFFICIAL,,,,RTE,,Moselle,,Poste de transformation,traction,way_132727403,0.9,,THIO6,,MISSING,2025-12-13T03:11:38.849683,
RTE_THIOT,THIOT,TX,RTE_ODRE,48.7582779,-0.0436798,OSM,EXACT,225.0,,225kV,OFFICIAL,,,,RTE,,Orne,,Poste de transformation,transmission,way_147581004,1.0,,THIOT,,MISSING,2025-12-13T03:11:38.849686,
RTE_V.BAR,VENDEUVRE-SUR-BARSE,TX,RTE_ODRE,,,MISSING,MISSING,63.0,,63kV,OFFICIAL,,,,RTE,,Aube,,Poste de transformation,,,,,V.BAR,,MISSING,2025-12-13T03:11:38.849690,
RTE_V.BEN,VAL-BENEYTE,TX,RTE_ODRE,49.0754241,1.9996081,OSM,EXACT,90.0,,90kV,OFFICIAL,,,,RTE,,Corrèze,,Poste de transformation,minor_distribution,way_485348202,0.9,,V.BEN,,MISSING,2025-12-13T03:11:38.849693,
RTE_V.ISE,VAL-D ISERE,TX,RTE_ODRE,49.0754241,1.9996081,OSM,EXACT,63.0,,63kV,OFFICIAL,,,,RTE,,Savoie,,Poste de transformation,minor_distribution,way_485348202,0.9,,V.ISE,,MISSING,2025-12-13T03:11:38.849696,
RTE_VALI5,VALIN,TX,RTE_ODRE,,,MISSING,MISSING,63.0,,63kV,OFFICIAL,,,,RTE,,Bouches-du-Rhône,,Poste de transformation,,,,,VALI5,,MISSING,2025-12-13T03:11:38.849699,
RTE_VEN.P,VENTHON-POSTE,TX,RTE_ODRE,45.6932033,6.4033971,OSM,EXACT,225.0,,225kV,OFFICIAL,,,,RTE,,Savoie,,Poste de transformation,transmission,way_183266838,0.9,,VEN.P,,MISSING,2025-12-13T03:11:38.849705,
RTE_VERFE,VERFEIL,TX,RTE_ODRE,43.6293588,1.6722007,OSM,EXACT,400.0,,400kV,OFFICIAL,,,,RTE,,Haute-Garonne,,Poste de transformation,transmission,way_109817708,1.0,,VERFE,,MISSING,2025-12-13T03:11:38.849709,
RTE_VIBRA,VIBRAYE,TX,RTE_ODRE,,,MISSING,MISSING,90.0,,90kV,OFFICIAL,,,,RTE,,Sarthe,,Poste de transformation,,,,,VIBRA,,MISSING,2025-12-13T03:11:38.849713,
RTE_VLEME,VILLEMENT,TX,RTE_ODRE,46.9320965,1.9625594,OSM,EXACT,90.0,,90kV,OFFICIAL,,,,RTE,,Indre,,Poste de transformation,transmission,way_209877605,1.0,,VLEME,,MISSING,2025-12-13T03:11:38.849716,
RTE_WATTR,WATTRELOS,TX,RTE_ODRE,,,MISSING,MISSING,225.0,,225kV,OFFICIAL,,,,RTE,,Nord,,Poste de transformation,,,,,WATTR,,MISSING,2025-12-13T03:11:38.849719,
RTE_ZBATO,PIQUAGE A BATON,TX,RTE_ODRE,45.1207742,5.9808087,OSM,EXACT,63.0,,63kV,OFFICIAL,,,,RTE,,Isère,,Point de piquage,generation,way_679104537,0.9,,ZBATO,,MISSING,2025-12-13T03:11:38.849723,
RTE_ZBRA5,PIQUAGE VIGUIER (LIAISON VALGRZ31VIGUI),TX,RTE_ODRE,,,MISSING,MISSING,63.0,,63kV,OFFICIAL,,,,RTE,,Aude,,Point de piquage,,,,,ZBRA5,,MISSING,2025-12-13T03:11:38.849726,
RTE_ZBUCH,SSJAM / C.FON COMM7 1,TX,RTE_ODRE,,,MISSING,MISSING,,,HORS TENSION,OFFICIAL,,,,RTE,,Sarthe,,Point de piquage,,,,,ZBUCH,,MISSING,2025-12-13T03:11:38.849730,
RTE_ZC.BA,C.BAR / G.ILE SSAL5 1,TX,RTE_ODRE,,,MISSING,MISSING,63.0,,63kV,OFFICIAL,,,,RTE,,Savoie,,Point de piquage,,,,,ZC.BA,,MISSING,2025-12-13T03:11:38.849736,
RTE_ZCATO,PIQUAGE CATOY (LIAISON COLAYZ31SSLIV),TX,RTE_ODRE,,,MISSING,MISSING,63.0,,63kV,OFFICIAL,,,,RTE,,Lot-et-Garonne,,Point de piquage,,,,,ZCATO,,MISSING,2025-12-13T03:11:38.849739,
RTE_ZCRUS,CRUSE / CORNI GEN.P 1,TX,RTE_ODRE,,,MISSING,MISSING,225.0,,225kV,OFFICIAL,,,,RTE,,Haute-Savoie,,Point de piquage,,,,,ZCRUS,,MISSING,2025-12-13T03:11:38.849743,
RTE_ZG.ME,PIQUAGE A LE GRAND-MEMENIER,TX,RTE_ODRE,,,MISSING,MISSING,90.0,,90kV,OFFICIAL,,,,RTE,,Ille-et-Vilaine,,Point de piquage,,,,,ZG.ME,,MISSING,2025-12-13T03:11:38.849746,
RTE_ZH.TO,PIQUAGE HAYANGE-TOURNEBRIDE,TX,RTE_ODRE,,,MISSING,MISSING,225.0,,225kV,OFFICIAL,,,,RTE,,Moselle,,Point de piquage,,,,,ZH.TO,,MISSING,2025-12-13T03:11:38.849750,
RTE_ZLEDE,LEDEN / THEZI UZES 1,TX,RTE_ODRE,44.0069428,4.4063699,OSM,EXACT,63.0,,63kV,OFFICIAL,,,,RTE,,Gard,,Point de piquage,,way_183947886,0.9,,ZLEDE,,MISSING,2025-12-13T03:11:38.849753,
RTE_ZMIZO,MIZOE / OCHE SSGUI 1,TX,RTE_ODRE,,,MISSING,MISSING,63.0,,63kV,OFFICIAL,,,,RTE,,Isère,,Point de piquage,,,,,ZMIZO,,MISSING,2025-12-13T03:11:38.849756,
RTE_ZMOND,PIQUAGE A HEROUVILLE-SAINT-CLAIR,TX,RTE_ODRE,45.7409471,7.6197337,OSM,EXACT,,,HORS TENSION,OFFICIAL,,,,RTE,,Calvados,,Point de piquage,transmission,way_103127442,0.9,,ZMOND,,MISSING,2025-12-13T03:11:38.849759,
RTE_ZMORG,PIQUAGE LA MORGE,TX,RTE_ODRE,,,MISSING,MISSING,63.0,,63kV,OFFICIAL,,,,RTE,,Aube,,Point de piquage,,,,,ZMORG,,MISSING,2025-12-13T03:11:38.849762,
RTE_ZMTR6,PIQUAGE MONTREJEAU SNCF (LIAISON GOUR5Z31LANNE),TX,RTE_ODRE,44.138083,4.819391,OSM,EXACT,63.0,,63kV,OFFICIAL,,,,RTE,,Hautes-Pyrénées,,Point de piquage,,way_79075607,0.9,,ZMTR6,,MISSING,2025-12-13T03:11:38.849766,
RTE_ZPAST,PIQUAGE PASTOUREL LIAISON CSLN5Z31MTPEL,TX,RTE_ODRE,,,MISSING,MISSING,63.0,,63kV,OFFICIAL,,,,RTE,,Hérault,,Point de piquage,,,,,ZPAST,,MISSING,2025-12-13T03:11:38.849769,
RTE_ZRAN6,RANDE / ALBER LONG6 2,TX,RTE_ODRE,,,MISSING,MISSING,225.0,,225kV,OFFICIAL,,,,RTE,,Savoie,,Point de piquage,,,,,ZRAN6,,MISSING,2025-12-13T03:11:38.849772,
RTE_ZRIC5,PIQUAGE RICHEBOURG A RICHEBOURG (ZRIC5),TX,RTE_ODRE,46.6781572,5.5557017,OSM,EXACT,225.0,,225kV,OFFICIAL,,,,RTE,,Eure-et-Loir,,Point de piquage,minor_distribution,way_82839688,0.9,,ZRIC5,,MISSING,2025-12-13T03:11:38.849775,
RTE_ZS.SE,PIQUAGE SOMMER-SEDAN PYL 9,TX,RTE_ODRE,49.7027498,4.9140542,OSM,EXACT,63.0,,63kV,OFFICIAL,,,,RTE,,Ardennes,,Point de piquage,,way_490977865,0.9,,ZS.SE,,MISSING,2025-12-13T03:11:38.849778,
RTE_ZSAR6,PIQUAGE SARREGUEMINES,TX,RTE_ODRE,49.0958372,7.0774127,OSM,EXACT,225.0,,225kV,OFFICIAL,,,,RTE,,Moselle,,Point de piquage,transmission,way_136286073,0.9,,ZSAR6,,MISSING,2025-12-13T03:11:38.849782,
RTE_ZSOL6,PIQUAGE A SOLLIES,TX,RTE_ODRE,,,MISSING,MISSING,63.0,,63kV,OFFICIAL,,,,RTE,,Var,,Point de piquage,,,,,ZSOL6,,MISSING,2025-12-13T03:11:38.849787,
RTE_ZSOU5,PIQUAGE SOULAC (LIAISON LESP5Z31SOULA),TX,RTE_ODRE,45.5046848,-1.1139817,OSM,EXACT,63.0,,63kV,OFFICIAL,,,,RTE,,,,Point de piquage,,way_491113950,0.9,,ZSOU5,,MISSING,2025-12-13T03:11:38.849790,
RTE_ZTANI,TANIN / MORZI PRESS 1,TX,RTE_ODRE,,,MISSING,MISSING,63.0,,63kV,OFFICIAL,,,,RTE,,Haute-Savoie,,Point de piquage,,,,,ZTANI,,MISSING,2025-12-13T03:11:38.849794,
RTE_ZTEM5,TEMP6 / LONG6 SAUS2 1,TX,RTE_ODRE,,,MISSING,MISSING,45.0,,45kV,OFFICIAL,,,,RTE,,Savoie,,Point de piquage,,,,,ZTEM5,,MISSING,2025-12-13T03:11:38.849799,
RTE_ZVAIL,VAILL / FORTA SANCE 1,TX,RTE_ODRE,,,MISSING,MISSING,63.0,,63kV,OFFICIAL,,,,RTE,,Cher,,Point de piquage,,,,,ZVAIL,,MISSING,2025-12-13T03:11:38.849803,
RTE_ZVIEV,PIQUAGE A SAINT-PHILBERT-SUR-RISLE,TX,RTE_ODRE,49.3571099,0.5036048,OSM,EXACT,90.0,,90kV,OFFICIAL,,,,RTE,,Eure,,Point de piquage,,way_194907625,0.9,,ZVIEV,,MISSING,2025-12-13T03:11:38.849806,
RTE_THEVA,THEVALLES,TX,RTE_ODRE,,,MISSING,MISSING,90.0,,90kV,OFFICIAL,,,,RTE,,Mayenne,,Poste de transformation,,,,,THEVA,,MISSING,2025-12-13T03:11:38.849809,
RTE_COUFF,COUFFRAU,TX,RTE_ODRE,43.7302541,2.7961672,OSM,EXACT,225.0,,225kV,OFFICIAL,,,,RTE,,Aveyron,,Poste de transformation,transmission,way_378126683,1.0,,COUFF,,MISSING,2025-12-13T03:11:38.849813,
RTE_B.PAI,BOIS PAILLET (LE),TX,RTE_ODRE,,,MISSING,MISSING,90.0,,90kV,OFFICIAL,,,,RTE,,Eure-et-Loir,,Poste de transformation,,,,,B.PAI,,MISSING,2025-12-13T03:11:38.849816,
RTE_TOURR,TOURRETTES,TX,RTE_ODRE,,,MISSING,MISSING,63.0,,63kV,OFFICIAL,,,,RTE,,Var,,Poste de transformation,,,,,TOURR,,MISSING,2025-12-13T03:11:38.849822,
RTE_M.NIC,MESNIL-SAINT-NICAISE,TX,RTE_ODRE,48.6487784,2.2894693,OSM,EXACT,63.0,,63kV,OFFICIAL,,,,RTE,,Somme,,Poste de transformation,,node_11842393767,0.9,,M.NIC,,MISSING,2025-12-13T03:11:38.849825,
RTE_JALAN,JALANCOURT (RINGO),TX,RTE_ODRE,47.5111613,5.3677681,OSM,EXACT,63.0,,63kV,OFFICIAL,,,,RTE,,Côte-d'Or,,Poste de transformation,generation,way_1328928938,0.9,,JALAN,,MISSING,2025-12-13T03:11:38.849828,
RTE_V.AUB,VILLETTE-SUR-AUBE,TX,RTE_ODRE,,,MISSING,MISSING,90.0,,90kV,OFFICIAL,,,,RTE,,Aube,,Poste de transformation,,,,,V.AUB,,MISSING,2025-12-13T03:11:38.849831,
RTE_TAUTE,TAUTE,TX,RTE_ODRE,49.2029235,-1.3613008,OSM,EXACT,400.0,,400kV,OFFICIAL,,,,RTE,,Manche,,Poste de transformation,transmission,way_222188543,1.0,,TAUTE,,MISSING,2025-12-13T03:11:38.849838,
RTE_C.DEN,CHAMPDENIERS-ST-DENIS,TX,RTE_ODRE,,,MISSING,MISSING,90.0,,90kV,OFFICIAL,,,,RTE,,Deux-Sèvres,,Poste de transformation,,,,,C.DEN,,MISSING,2025-12-13T03:11:38.849841,
RTE_G.RIV,GRANDES-RIVIERES,TX,RTE_ODRE,47.3066722,-2.1365867,OSM,EXACT,225.0,,225kV,OFFICIAL,,,,RTE,,Loire-Atlantique,,Poste de transformation,generation,way_545376170,1.0,,G.RIV,,MISSING,2025-12-13T03:11:38.849845,
RTE_ZC.OM,PIQUAGE A CRESSY-OMENCOURT,TX,RTE_ODRE,,,MISSING,MISSING,225.0,,225kV,OFFICIAL,,,,RTE,,Somme,,Point de piquage,,,,,ZC.OM,,MISSING,2025-12-13T03:11:38.849850,
RTE_PRINQ,PRINQUIAU,TX,RTE_ODRE,,,MISSING,MISSING,225.0,,225kV,OFFICIAL,,,,RTE,,Loire-Atlantique,,Poste de transformation,,,,,PRINQ,,MISSING,2025-12-13T03:11:38.849853,
RTE_ZV.LI,PIQUAGE A LA VALLEE AUX LIEVRES,TX,RTE_ODRE,45.1125504,4.3019577,OSM,EXACT,63.0,,63kV,OFFICIAL,,,,RTE,,Eure,,Point de piquage,minor_distribution,node_5903904732,0.9,,ZV.LI,,MISSING,2025-12-13T03:11:38.849856,
RTE_ZSS11,PIQUAGE A SAINT-GERAUD-DE-CORPS,TX,RTE_ODRE,44.9393538,0.2368022,OSM,EXACT,225.0,,225kV,OFFICIAL,,,,RTE,,Dordogne,,Point de piquage,transmission,way_760653905,0.9,,ZSS11,,MISSING,2025-12-13T03:11:38.849859,
RTE_A.BOU,ANDREZIEUX-BOUTHEON,TX,RTE_ODRE,45.5333747,4.3059759,OSM,EXACT,63.0,,63kV,OFFICIAL,,,,RTE,,Loire,,Poste de transformation,industrial,way_823662698,1.0,,A.BOU,,MISSING,2025-12-13T03:11:38.849862,
RTE_GARRI,GARRIGOU,TX,RTE_ODRE,43.6268208,2.8217284,OSM,EXACT,225.0,,225kV,OFFICIAL,,,,RTE,,Tarn,,Poste de transformation,generation,way_1091109862,0.9,,GARRI,,MISSING,2025-12-13T03:11:38.849866,
RTE_VICOG,VICOGNE (LA),TX,RTE_ODRE,,,MISSING,MISSING,225.0,,225kV,OFFICIAL,,,,RTE,,Somme,,Poste de transformation,,,,,VICOG,,MISSING,2025-12-13T03:11:38.849869,
RTE_CHARR,CHARRAUT (LE),TX,RTE_ODRE,,,MISSING,MISSING,90.0,,90kV,OFFICIAL,,,,RTE,,Vienne,,Poste de transformation,,,,,CHARR,,MISSING,2025-12-13T03:11:38.849892,
RTE_P.BOI,PETIT-BOIS (LE),TX,RTE_ODRE,46.1547536,-1.3243745,OSM,EXACT,225.0,,225kV,OFFICIAL,,,,RTE,,Essonne,,Poste de transformation,minor_distribution,way_593177664,0.9,,P.BOI,,MISSING,2025-12-13T03:11:38.849897,
RTE_.PIOS,PIOSSASCO,TX,RTE_ODRE,44.9702805,7.4417339,OSM,EXACT,,,COURANT CONTINU,OFFICIAL,,,,RTE,,Savoie,,Poste de transformation,transmission,way_98902899,1.0,,.PIOS,,MISSING,2025-12-13T03:11:38.849903,
RTE_ZCH10,PIQUAGE A CHARRON,TX,RTE_ODRE,46.0677703,6.4418775,OSM,EXACT,90.0,,90kV,OFFICIAL,,,,RTE,,Charente-Maritime,,Point de piquage,minor_distribution,node_3748612731,0.9,,ZCH10,,MISSING,2025-12-13T03:11:38.849908,
RTE_ZGARR,PIQUAGE A GARRIGOU,TX,RTE_ODRE,,,MISSING,MISSING,225.0,,225kV,OFFICIAL,,,,RTE,,Tarn,,Point de piquage,,,,,ZGARR,,MISSING,2025-12-13T03:11:38.849915,
RTE_VIGNE,VIGNE (LA),TX,RTE_ODRE,45.1753507,4.3137411,OSM,EXACT,225.0,,225kV,OFFICIAL,,,,RTE,,Yonne,,Poste de transformation,minor_distribution,node_5894946071,1.0,,VIGNE,,MISSING,2025-12-13T03:11:38.849919,
RTE_ZT.RO,PIQUAGE A TOURZEL-RONZIERES,TX,RTE_ODRE,,,MISSING,MISSING,63.0,,63kV,OFFICIAL,,,,RTE,,Puy-de-Dôme,,Point de piquage,,,,,ZT.RO,,MISSING,2025-12-13T03:11:38.849923,
RTE_ZSAB5,PIQUAGE A SABLONNIERES (LES),TX,RTE_ODRE,47.9298788,1.8877458,OSM,EXACT,63.0,,63kV,OFFICIAL,,,,RTE,,Nord,,Point de piquage,minor_distribution,way_68414281,0.9,,ZSAB5,,MISSING,2025-12-13T03:11:38.849929,
RTE_SCIER,SCIERIE (LA),TX,RTE_ODRE,45.2753951,4.30355,OSM,EXACT,225.0,,225kV,OFFICIAL,,,,RTE,,Pyrénées-Atlantiques,,Poste de transformation,minor_distribution,node_6145826375,0.9,,SCIER,,MISSING,2025-12-13T03:11:38.849933,
RTE_ZS.SO,PIQUAGE A SANS-SOUCI,TX,RTE_ODRE,,,MISSING,MISSING,63.0,,63kV,OFFICIAL,,,,RTE,,Haute-Garonne,,Point de piquage,,,,,ZS.SO,,MISSING,2025-12-13T03:11:38.849937,
RTE_ZP.IL,PIQUAGE AUX PETITES ILES,TX,RTE_ODRE,,,MISSING,MISSING,225.0,,225kV,OFFICIAL,,,,RTE,,Isère,,Point de piquage,,,,,ZP.IL,,MISSING,2025-12-13T03:11:38.849941,
RTE_LOUD8,LOUDENVIELLE (PRODUCTION),TX,RTE_ODRE,,,MISSING,MISSING,63.0,,63kV,OFFICIAL,,,,RTE,,Hautes-Pyrénées,,Poste de transformation,,,,,LOUD8,,MISSING,2025-12-13T03:11:38.849944,
RTE_ZT.SS,PIQUAGE AUX TERRES-ST-ANTOINE,TX,RTE_ODRE,49.100897,-1.60229,OSM,EXACT,63.0,,63kV,OFFICIAL,,,,RTE,,Marne,,Point de piquage,minor_distribution,way_165062364,0.9,,ZT.SS,,MISSING,2025-12-13T03:11:38.849948,
RTE_ZLESS,PIQUAGE A LESSAY (EX ZCOU6),TX,RTE_ODRE,,,MISSING,MISSING,90.0,,90kV,OFFICIAL,,,,RTE,,Manche,,Point de piquage,,,,,ZLESS,,MISSING,2025-12-13T03:11:38.849951,
RTE_B.THO,BARRE-THOMAS (LA),TX,RTE_ODRE,48.1103965,-1.7256776,OSM,EXACT,90.0,,90kV,OFFICIAL,,,,RTE,,Ille-et-Vilaine,,Poste de transformation,distribution,way_80301699,0.9,,B.THO,,MISSING,2025-12-13T03:11:38.849955,
RTE_1AMBI,AMBIALET /AVALATS 33KV,TX,RTE_ODRE,,,MISSING,MISSING,45.0,,<45kV,OFFICIAL,,,,RTE,,Tarn,,Poste de transformation,,,,,1AMBI,,MISSING,2025-12-13T03:11:38.849959,
RTE_A.DUC,ARNAY LE DUC,TX,RTE_ODRE,46.5385466,2.33851,OSM,EXACT,63.0,,63kV,OFFICIAL,,,,RTE,,Côte-d'Or,,Poste de transformation,,node_13132825381,0.9,,A.DUC,,MISSING,2025-12-13T03:11:38.849962,
RTE_A.NOR,ANCE-DU-NORD,TX,RTE_ODRE,43.966428,4.1231996,OSM,EXACT,63.0,,63kV,OFFICIAL,,,,RTE,,Haute-Loire,,Poste de transformation,minor_distribution,node_7578251774,0.9,,A.NOR,,MISSING,2025-12-13T03:11:38.849966,
RTE_ALIZA,ALIZAY,TX,RTE_ODRE,,,MISSING,MISSING,90.0,,90kV,OFFICIAL,,,,RTE,,Seine-Maritime,,Poste de transformation,,,,,ALIZA,,MISSING,2025-12-13T03:11:38.849971,
RTE_AMANV,AMANVILLERS,TX,RTE_ODRE,,,MISSING,MISSING,63.0,,63kV,OFFICIAL,,,,RTE,,Meurthe-et-Moselle,,Poste de transformation,,,,,AMANV,,MISSING,2025-12-13T03:11:38.849975,
RTE_AMARG,AMARGUE,TX,RTE_ODRE,49.8578945,2.2541461,OSM,EXACT,225.0,,225kV,OFFICIAL,,,,RTE,,Somme,,Poste de transformation,distribution,way_85735049,1.0,,AMARG,,MISSING,2025-12-13T03:11:38.849979,
RTE_AMBER,AMBERIEU,TX,RTE_ODRE,,,MISSING,MISSING,63.0,,63kV,OFFICIAL,,,,RTE,,Ain,,Poste de transformation,,,,,AMBER,,MISSING,2025-12-13T03:11:38.849983,
RTE_AMIEN,AMIENS,TX,RTE_ODRE,49.9120591,2.2940554,OSM,EXACT,225.0,,225kV,OFFICIAL,,,,RTE,,Somme,,Poste de transformation,transmission,way_111265307,1.0,,AMIEN,,MISSING,2025-12-13T03:11:38.849991,
RTE_ARVIG,ARVIGNY,TX,RTE_ODRE,,,MISSING,MISSING,225.0,,225kV,OFFICIAL,,,,RTE,,Essonne,,Poste de transformation,,,,,ARVIG,,MISSING,2025-12-13T03:11:38.849995,
RTE_ASSIE,ASSIER,TX,RTE_ODRE,,,MISSING,MISSING,63.0,,63kV,OFFICIAL,,,,RTE,,Lot,,Poste de transformation,,,,,ASSIE,,MISSING,2025-12-13T03:11:38.849998,
RTE_AUBEN,AUBENAS,TX,RTE_ODRE,,,MISSING,MISSING,63.0,,63kV,OFFICIAL,,,,RTE,,Ardèche,,Poste de transformation,,,,,AUBEN,,MISSING,2025-12-13T03:11:38.850002,
RTE_AUTER,AUTERRIVE,TX,RTE_ODRE,,,MISSING,MISSING,63.0,,63kV,OFFICIAL,,,,RTE,,Pyrénées-Atlantiques,,Poste de transformation,,,,,AUTER,,MISSING,2025-12-13T03:11:38.850006,
RTE_AVRAN,AVRANCHES,TX,RTE_ODRE,,,MISSING,MISSING,90.0,,90kV,OFFICIAL,,,,RTE,,Manche,,Poste de transformation,,,,,AVRAN,,MISSING,2025-12-13T03:11:38.850010,
RTE_B.COR,BREGNIER-CORDON,TX,RTE_ODRE,,,MISSING,MISSING,63.0,,63kV,OFFICIAL,,,,RTE,,Isère,,Poste de transformation,,,,,B.COR,,MISSING,2025-12-13T03:11:38.850014,
RTE_B.GUI,BOIS-GUILLAUME,TX,RTE_ODRE,49.4670823,1.1327358,OSM,EXACT,90.0,,90kV,OFFICIAL,,,,RTE,,Seine-Maritime,,Poste de transformation,distribution,way_166594692,1.0,,B.GUI,,MISSING,2025-12-13T03:11:38.850017,
RTE_B.VAL,BOURG-LES-VALENCE,TX,RTE_ODRE,45.0951179,4.204514,OSM,EXACT,225.0,,225kV,OFFICIAL,,,,RTE,,Ardèche,,Poste de transformation,minor_distribution,node_5679579218,0.9,,B.VAL,,MISSING,2025-12-13T03:11:38.850021,
RTE_BASTI,BASTILLAC,TX,RTE_ODRE,43.2253855,0.0401234,OSM,EXACT,225.0,,225kV,OFFICIAL,,,,RTE,,Hautes-Pyrénées,,Poste de transformation,transmission,way_96822819,1.0,,BASTI,,MISSING,2025-12-13T03:11:38.850025,
RTE_BENE5,BENETIERE,TX,RTE_ODRE,,,MISSING,MISSING,90.0,,90kV,OFFICIAL,,,,RTE,,Maine-et-Loire,,Poste de transformation,,,,,BENE5,,MISSING,2025-12-13T03:11:38.850028,
RTE_BERRE,BERRE,TX,RTE_ODRE,43.4969628,5.2038764,OSM,EXACT,63.0,,63kV,OFFICIAL,,,,RTE,,Bouches-du-Rhône,,Poste de transformation,distribution,way_182940630,1.0,,BERRE,,MISSING,2025-12-13T03:11:38.850031,
RTE_BERTH,BERTHOLENE,TX,RTE_ODRE,,,MISSING,MISSING,63.0,,63kV,OFFICIAL,,,,RTE,,Aveyron,,Poste de transformation,,,,,BERTH,,MISSING,2025-12-13T03:11:38.850035,
RTE_BESS5,BESSEY,TX,RTE_ODRE,,,MISSING,MISSING,63.0,,63kV,OFFICIAL,,,,RTE,,Loire,,Poste de transformation,,,,,BESS5,,MISSING,2025-12-13T03:11:38.850038,
RTE_BZGAY,BOURGAY (ENEDIS),TX,RTE_ODRE,49.5350084,1.047348,OSM,EXACT,90.0,,90kV,OFFICIAL,,,,RTE,,Seine-Maritime,,Poste de transformation,,way_166606625,1.0,,BZGAY,,MISSING,2025-12-13T03:11:38.850042,
RTE_C.AND,COTE-ST-ANDRE (LA),TX,RTE_ODRE,45.2548152,4.4153524,OSM,EXACT,63.0,,63kV,OFFICIAL,,,,RTE,,Isère,,Poste de transformation,minor_distribution,node_5893414173,0.9,,C.AND,,MISSING,2025-12-13T03:11:38.850052,
RTE_C.CAD,CROIX-CADET,TX,RTE_ODRE,50.7107788,3.1320048,OSM,EXACT,90.0,,90kV,OFFICIAL,,,,RTE,,Haute-Vienne,,Poste de transformation,transmission,way_165966009,0.9,,C.CAD,,MISSING,2025-12-13T03:11:38.850055,
RTE_C.NEY,CROIX-DE-NEYRAT,TX,RTE_ODRE,45.810344,3.102791,OSM,EXACT,63.0,,63kV,OFFICIAL,,,,RTE,,Puy-de-Dôme,,Poste de transformation,distribution,way_71124736,1.0,,C.NEY,,MISSING,2025-12-13T03:11:38.850059,
RTE_C.SAL,CHAMP-SALMON,TX,RTE_ODRE,,,MISSING,MISSING,63.0,,63kV,OFFICIAL,,,,RTE,,Meurthe-et-Moselle,,Poste de transformation,,,,,C.SAL,,MISSING,2025-12-13T03:11:38.850063,
RTE_CAMBO,CAMBOLLE,TX,RTE_ODRE,,,MISSING,MISSING,90.0,,90kV,OFFICIAL,,,,RTE,,Eure,,Poste de transformation,,,,,CAMBO,,MISSING,2025-12-13T03:11:38.850066,
RTE_CARC5,CARCASSONNE,TX,RTE_ODRE,47.9746029,0.2329459,OSM,EXACT,63.0,,63kV,OFFICIAL,,,,RTE,,Aude,,Poste de transformation,minor_distribution,way_65130103,1.0,,CARC5,,MISSING,2025-12-13T03:11:38.850079,
RTE_CAVAL,CAVALAIRE,TX,RTE_ODRE,,,MISSING,MISSING,63.0,,63kV,OFFICIAL,,,,RTE,,Var,,Poste de transformation,,,,,CAVAL,,MISSING,2025-12-13T03:11:38.850082,
RTE_CESSE,CESSE,TX,RTE_ODRE,45.0973035,4.1451748,OSM,EXACT,63.0,,63kV,OFFICIAL,,,,RTE,,Aude,,Poste de transformation,minor_distribution,node_5851433185,0.9,,CESSE,,MISSING,2025-12-13T03:11:38.850086,
RTE_CHA.N,CHALON-NORD,TX,RTE_ODRE,43.966428,4.1231996,OSM,EXACT,63.0,,63kV,OFFICIAL,,,,RTE,,Saône-et-Loire,,Poste de transformation,minor_distribution,node_7578251774,0.9,,CHA.N,,MISSING,2025-12-13T03:11:38.850089,
RTE_CHAN6,CHANCENAY,TX,RTE_ODRE,48.6768504,4.9985558,OSM,EXACT,225.0,,225kV,OFFICIAL,,,,RTE,,Marne,,Poste de transformation,transmission,way_259142886,1.0,,CHAN6,,MISSING,2025-12-13T03:11:38.850093,
RTE_CHANC,CHANCIA,TX,RTE_ODRE,46.3477922,5.6325486,OSM,EXACT,63.0,,63kV,OFFICIAL,,,,RTE,,Jura,,Poste de transformation,transmission,way_234066172,1.0,,CHANC,,MISSING,2025-12-13T03:11:38.850096,
RTE_CHANO,CHANOZ,TX,RTE_ODRE,,,MISSING,MISSING,63.0,,63kV,OFFICIAL,,,,RTE,,Rhône,,Poste de transformation,,,,,CHANO,,MISSING,2025-12-13T03:11:38.850099,
RTE_CHAVA,CHAVAROCHE,TX,RTE_ODRE,,,MISSING,MISSING,63.0,,63kV,OFFICIAL,,,,RTE,,Haute-Savoie,,Poste de transformation,,,,,CHAVA,,MISSING,2025-12-13T03:11:38.850103,
RTE_CIERP,CIERP,TX,RTE_ODRE,,,MISSING,MISSING,63.0,,63kV,OFFICIAL,,,,RTE,,Hautes-Pyrénées,,Poste de transformation,,,,,CIERP,,MISSING,2025-12-13T03:11:38.850108,
RTE_CLEDE,CLEDER,TX,RTE_ODRE,48.6447175,-4.1334583,OSM,EXACT,63.0,,63kV,OFFICIAL,,,,RTE,,Finistère,,Poste de transformation,distribution,way_337665972,1.0,,CLEDE,,MISSING,2025-12-13T03:11:38.850111,
RTE_CLIMA,CLIMADEF,TX,RTE_ODRE,,,MISSING,MISSING,63.0,,63kV,OFFICIAL,,,,RTE,,Yvelines,,Poste de transformation,,,,,CLIMA,,MISSING,2025-12-13T03:11:38.850114,
RTE_CLUS5,CLUSE (LA),TX,RTE_ODRE,46.1742031,5.5682241,OSM,EXACT,63.0,,63kV,OFFICIAL,,,,RTE,,Ain,,Poste de transformation,,way_259244280,0.9,,CLUS5,,MISSING,2025-12-13T03:11:38.850120,
RTE_CLUSE,CLUSES,TX,RTE_ODRE,,,MISSING,MISSING,63.0,,63kV,OFFICIAL,,,,RTE,,Haute-Savoie,,Poste de transformation,,,,,CLUSE,,MISSING,2025-12-13T03:11:38.850123,
RTE_CORBI,CORBIERE (LA),TX,RTE_ODRE,47.485906,-0.4778695,OSM,EXACT,225.0,,225kV,OFFICIAL,,,,RTE,,Maine-et-Loire,,Poste de transformation,transmission,way_154391107,0.9,,CORBI,,MISSING,2025-12-13T03:11:38.850126,
RTE_CPNAC,CHAMPAGNAC,TX,RTE_ODRE,45.7195654,0.8988432,OSM,EXACT,90.0,,90kV,OFFICIAL,,,,RTE,,Haute-Vienne,,Poste de transformation,transmission,way_140390161,1.0,,CPNAC,,MISSING,2025-12-13T03:11:38.850130,
RTE_CREPI,CREPIEUX,TX,RTE_ODRE,,,MISSING,MISSING,63.0,,63kV,OFFICIAL,,,,RTE,,Rhône,,Poste de transformation,,,,,CREPI,,MISSING,2025-12-13T03:11:38.850134,
RTE_CROI5,CROIXRAULT,TX,RTE_ODRE,,,MISSING,MISSING,90.0,,90kV,OFFICIAL,,,,RTE,,Somme,,Poste de transformation,,,,,CROI5,,MISSING,2025-12-13T03:11:38.850137,
RTE_CRUEL,CRUEL (LE),TX,RTE_ODRE,48.2279379,-1.7262722,OSM,EXACT,90.0,,90kV,OFFICIAL,,,,RTE,,Ille-et-Vilaine,,Poste de transformation,transmission,way_128843370,0.9,,CRUEL,,MISSING,2025-12-13T03:11:38.850141,
RTE_CSLJA,CASTELJALOUX,TX,RTE_ODRE,44.3190622,0.0944326,OSM,EXACT,63.0,,63kV,OFFICIAL,,,,RTE,,Lot-et-Garonne,,Poste de transformation,distribution,way_191909384,1.0,,CSLJA,,MISSING,2025-12-13T03:11:38.850144,
RTE_CSLS5,CASTELSARRASIN (CLIENT),TX,RTE_ODRE,44.0401391,1.1196735,OSM,EXACT,63.0,,63kV,OFFICIAL,,,,RTE,,Tarn-et-Garonne,,Poste de transformation,,way_428875656,1.0,,CSLS5,,MISSING,2025-12-13T03:11:38.850148,
RTE_CZLIS,COURLIS,TX,RTE_ODRE,47.8719683,-3.8871303,OSM,EXACT,90.0,,90kV,OFFICIAL,,,,RTE,,Seine-Maritime,,Poste de transformation,,node_3207216344,1.0,,CZLIS,,MISSING,2025-12-13T03:11:38.850151,
RTE_CZNEU,COURNEUVE (LA),TX,RTE_ODRE,48.9297817,2.3903723,OSM,EXACT,225.0,,225kV,OFFICIAL,,,,RTE,,Hauts-de-Seine,,Poste de transformation,transmission,way_350044068,0.9,,CZNEU,,MISSING,2025-12-13T03:11:38.850154,
RTE_CZVIL,COURVILLE,TX,RTE_ODRE,48.4520764,1.2368881,OSM,EXACT,90.0,,90kV,OFFICIAL,,,,RTE,,Eure-et-Loir,,Poste de transformation,traction,way_187190347,0.9,,CZVIL,,MISSING,2025-12-13T03:11:38.850158,
RTE_D.PAL,DUN LE PALESTEL,TX,RTE_ODRE,,,MISSING,MISSING,90.0,,90kV,OFFICIAL,,,,RTE,,Creuse,,Poste de transformation,,,,,D.PAL,,MISSING,2025-12-13T03:11:38.850161,
RTE_DECIN,DECINES,TX,RTE_ODRE,45.7510577,4.9355939,OSM,EXACT,225.0,,225kV,OFFICIAL,,,,RTE,,Rhône,,Poste de transformation,distribution,way_1452991120,1.0,,DECIN,,MISSING,2025-12-13T03:11:38.850165,
RTE_DELBA,DELBASSE,TX,RTE_ODRE,,,MISSING,MISSING,90.0,,90kV,OFFICIAL,,,,RTE,,Nord,,Poste de transformation,,,,,DELBA,,MISSING,2025-12-13T03:11:38.850170,
RTE_DELLE,DELLE,TX,RTE_ODRE,47.5014425,6.9929411,OSM,EXACT,63.0,,63kV,OFFICIAL,,,,RTE,,Doubs,,Poste de transformation,,way_129865196,1.0,,DELLE,,MISSING,2025-12-13T03:11:38.850174,
RTE_DINAN,DINAN,TX,RTE_ODRE,,,MISSING,MISSING,63.0,,63kV,OFFICIAL,,,,RTE,,Côtes-d'Armor,,Poste de transformation,,,,,DINAN,,MISSING,2025-12-13T03:11:38.850177,
RTE_DIVES,DIVES,TX,RTE_ODRE,49.2849098,-0.1098522,OSM,EXACT,90.0,,90kV,OFFICIAL,,,,RTE,,,,Poste de transformation,,way_132636958,1.0,,DIVES,,MISSING,2025-12-13T03:11:38.850181,
RTE_DORMA,DORMANS,TX,RTE_ODRE,,,MISSING,MISSING,63.0,,63kV,OFFICIAL,,,,RTE,,Aisne,,Poste de transformation,,,,,DORMA,,MISSING,2025-12-13T03:11:38.850184,
RTE_ESTAQ,ESTAQUE (L),TX,RTE_ODRE,43.36385,5.3251529,OSM,EXACT,63.0,,63kV,OFFICIAL,,,,RTE,,Bouches-du-Rhône,,Poste de transformation,traction,way_490392958,0.9,,ESTAQ,,MISSING,2025-12-13T03:11:38.850187,
RTE_ETAUL,ETAULIERS,TX,RTE_ODRE,45.2192666,-0.5668046,OSM,EXACT,63.0,,63kV,OFFICIAL,,,,RTE,,Gironde,,Poste de transformation,distribution,way_491655575,1.0,,ETAUL,,MISSING,2025-12-13T03:11:38.850190,
RTE_F.JOU,FERTE-SOUS-JOUARRE (LA),TX,RTE_ODRE,48.68337,2.0141609,OSM,EXACT,63.0,,63kV,OFFICIAL,,,,RTE,,Seine-et-Marne,,Poste de transformation,,node_12692108915,0.9,,F.JOU,,MISSING,2025-12-13T03:11:38.850193,
RTE_F.MAN,FOUR-MANOIR,TX,RTE_ODRE,47.8790972,-3.5062223,OSM,EXACT,63.0,,63kV,OFFICIAL,,,,RTE,,Nord,,Poste de transformation,minor_distribution,node_3667405682,0.9,,F.MAN,,MISSING,2025-12-13T03:11:38.850200,
RTE_FAMAR,FAMARS,TX,RTE_ODRE,50.31166,3.5056762,OSM,EXACT,225.0,,225kV,OFFICIAL,,,,RTE,,Nord,,Poste de transformation,transmission,way_129624451,1.0,,FAMAR,,MISSING,2025-12-13T03:11:38.850203,
RTE_FAUGE,FAUGERES,TX,RTE_ODRE,,,MISSING,MISSING,63.0,,63kV,OFFICIAL,,,,RTE,,Hérault,,Poste de transformation,,,,,FAUGE,,MISSING,2025-12-13T03:11:38.850206,
RTE_FEISS,FEISSONS,TX,RTE_ODRE,45.5637561,6.4707367,OSM,EXACT,63.0,,63kV,OFFICIAL,,,,RTE,,Savoie,,Poste de transformation,generation,way_455838097,1.0,,FEISS,,MISSING,2025-12-13T03:11:38.850210,
RTE_FERRI,FERRIERES,TX,RTE_ODRE,42.9353928,1.6178013,OSM,EXACT,63.0,,63kV,OFFICIAL,,,,RTE,,Ariège,,Poste de transformation,transmission,way_170510270,1.0,,FERRI,,MISSING,2025-12-13T03:11:38.850214,
RTE_FIER,FIER,TX,RTE_ODRE,45.911701,6.0943933,OSM,EXACT,63.0,,63kV,OFFICIAL,,,,RTE,,Haute-Savoie,,Poste de transformation,industrial,way_228134526,1.0,,FIER,,MISSING,2025-12-13T03:11:38.850217,
RTE_FLORE,FLORENSAC,TX,RTE_ODRE,43.3864144,3.4815615,OSM,EXACT,225.0,,225kV,OFFICIAL,,,,RTE,,Hérault,,Poste de transformation,transmission,way_130595758,1.0,,FLORE,,MISSING,2025-12-13T03:11:38.850220,
RTE_FORMI,FORMIGUERES,TX,RTE_ODRE,,,MISSING,MISSING,63.0,,63kV,OFFICIAL,,,,RTE,,Pyrénées-Orientales,,Poste de transformation,,,,,FORMI,,MISSING,2025-12-13T03:11:38.850227,
RTE_G.COU,GRAND-COURONNE,TX,RTE_ODRE,49.3504706,0.9933398,OSM,EXACT,225.0,,225kV,OFFICIAL,,,,RTE,,Seine-Maritime,,Poste de transformation,transmission,way_119048154,1.0,,G.COU,,MISSING,2025-12-13T03:11:38.850231,
RTE_G.LUC,GRAND LUCE,TX,RTE_ODRE,,,MISSING,MISSING,90.0,,90kV,OFFICIAL,,,,RTE,,Sarthe,,Poste de transformation,,,,,G.LUC,,MISSING,2025-12-13T03:11:38.850234,
RTE_GAREN,GARENNES,TX,RTE_ODRE,50.9627158,1.8828824,OSM,EXACT,90.0,,90kV,OFFICIAL,,,,RTE,,,,Poste de transformation,distribution,way_373563396,1.0,,GAREN,,MISSING,2025-12-13T03:11:38.850237,
RTE_GARIB,GARIBALDI,TX,RTE_ODRE,48.8476548,2.3043735,OSM,EXACT,225.0,,225kV,OFFICIAL,,,,RTE,,Paris,,Poste de transformation,distribution,way_54117385,0.9,,GARIB,,MISSING,2025-12-13T03:11:38.850240,
RTE_GENI6,GENISSIAT-PORTIQUE,TX,RTE_ODRE,46.0560045,5.8049047,OSM,EXACT,63.0,,63kV,OFFICIAL,,,,RTE,,Ain,,Poste de transformation,transmission,way_83293593,0.9,,GENI6,,MISSING,2025-12-13T03:11:38.850243,
RTE_GHISO,GHISONACCIA,TX,RTE_ODRE,42.0651508,9.3705217,OSM,EXACT,,,HORS TENSION,OFFICIAL,,,,RTE,,Val-d'Oise,,Poste de transformation,distribution,way_138481295,1.0,,GHISO,,MISSING,2025-12-13T03:11:38.850246,
RTE_GLACI,GLACIERE (LA),TX,RTE_ODRE,44.837767,-0.6114939,OSM,EXACT,63.0,,63kV,OFFICIAL,,,,RTE,,Gironde,,Poste de transformation,distribution,way_222545691,0.9,,GLACI,,MISSING,2025-12-13T03:11:38.850250,
RTE_GUARB,GUARBECQUE,TX,RTE_ODRE,50.6189789,2.5044511,OSM,EXACT,225.0,,225kV,OFFICIAL,,,,RTE,,Pas-de-Calais,,Poste de transformation,transmission,way_147580973,1.0,,GUARB,,MISSING,2025-12-13T03:11:38.850253,
RTE_GYSSE,GYSSERIE,TX,RTE_ODRE,46.8341515,5.6004716,OSM,EXACT,63.0,,63kV,OFFICIAL,,,,RTE,,Jura,,Poste de transformation,,way_123803366,1.0,,GYSSE,,MISSING,2025-12-13T03:11:38.850256,
RTE_HAUT6,HAUTERIVE,TX,RTE_ODRE,46.7666631,7.1256888,OSM,EXACT,63.0,,63kV,OFFICIAL,,,,RTE,,Ain,,Poste de transformation,,way_122720993,0.9,,HAUT6,,MISSING,2025-12-13T03:11:38.850261,
RTE_HAUTE,HAUTEFAGE,TX,RTE_ODRE,45.0711285,1.9760059,OSM,EXACT,90.0,,90kV,OFFICIAL,,,,RTE,,Corrèze,,Poste de transformation,transmission,way_139582165,1.0,,HAUTE,,MISSING,2025-12-13T03:11:38.850264,
RTE_HORME,HORME (L ),TX,RTE_ODRE,45.4909574,4.5520872,OSM,EXACT,63.0,,63kV,OFFICIAL,,,,RTE,,Loire,,Poste de transformation,transmission,way_131582987,1.0,,HORME,,MISSING,2025-12-13T03:11:38.850268,
RTE_J.BRU,JEAN BRUNHES,TX,RTE_ODRE,43.5999979,1.4207824,OSM,EXACT,63.0,,63kV,OFFICIAL,,,,RTE,,Haute-Garonne,,Poste de transformation,distribution,way_64093415,0.9,,J.BRU,,MISSING,2025-12-13T03:11:38.850271,
RTE_JARNE,JARNE (LA),TX,RTE_ODRE,,,MISSING,MISSING,90.0,,90kV,OFFICIAL,,,,RTE,,Charente-Maritime,,Poste de transformation,,,,,JARNE,,MISSING,2025-12-13T03:11:38.850274,
RTE_L.BAR,LIGNY-EN-BARROIS,TX,RTE_ODRE,47.9283045,1.9460495,OSM,EXACT,63.0,,63kV,OFFICIAL,,,,RTE,,Meuse,,Poste de transformation,minor_distribution,way_345782647,0.9,,L.BAR,,MISSING,2025-12-13T03:11:38.850279,
RTE_LAURO,LAURONS,TX,RTE_ODRE,,,MISSING,MISSING,63.0,,63kV,OFFICIAL,,,,RTE,,,,Poste de transformation,,,,,LAURO,,MISSING,2025-12-13T03:11:38.850282,
RTE_LECTO,LECTOURE,TX,RTE_ODRE,,,MISSING,MISSING,63.0,,63kV,OFFICIAL,,,,RTE,,Gers,,Poste de transformation,,,,,LECTO,,MISSING,2025-12-13T03:11:38.850286,
RTE_LIORA,LIORAN,TX,RTE_ODRE,,,MISSING,MISSING,63.0,,63kV,OFFICIAL,,,,RTE,,Cantal,,Poste de transformation,,,,,LIORA,,MISSING,2025-12-13T03:11:38.850289,
RTE_LOING,LOING,TX,RTE_ODRE,,,MISSING,MISSING,63.0,,63kV,OFFICIAL,,,,RTE,,Seine-et-Marne,,Poste de transformation,,,,,LOING,,MISSING,2025-12-13T03:11:38.850292,
RTE_LOURD,LOURDES,TX,RTE_ODRE,,,MISSING,MISSING,63.0,,63kV,OFFICIAL,,,,RTE,,Hautes-Pyrénées,,Poste de transformation,,,,,LOURD,,MISSING,2025-12-13T03:11:38.850295,
RTE_LUZI1,LUZIERES I,TX,RTE_ODRE,,,MISSING,MISSING,63.0,,63kV,OFFICIAL,,,,RTE,,Tarn,,Poste de transformation,,,,,LUZI1,,MISSING,2025-12-13T03:11:38.850299,
RTE_MARC5,MARCILLAC,TX,RTE_ODRE,,,MISSING,MISSING,90.0,,90kV,OFFICIAL,,,,RTE,,Corrèze,,Poste de transformation,,,,,MARC5,,MISSING,2025-12-13T03:11:38.850302,
RTE_MARC8,MARCLAN,TX,RTE_ODRE,,,MISSING,MISSING,63.0,,63kV,OFFICIAL,,,,RTE,,Haute-Garonne,,Poste de transformation,,,,,MARC8,,MISSING,2025-12-13T03:11:38.850305,
RTE_MERY,MERY (CIE GLE EAUX A MERY-SUR-OISE),TX,RTE_ODRE,48.5197718,3.9183484,OSM,EXACT,63.0,,63kV,OFFICIAL,,,,RTE,,Val-d'Oise,,Poste de transformation,transmission,way_82599261,0.9,,MERY,,MISSING,2025-12-13T03:11:38.850309,
RTE_MEXY,MEXY,TX,RTE_ODRE,,,MISSING,MISSING,63.0,,63kV,OFFICIAL,,,,RTE,,Meurthe-et-Moselle,,Poste de transformation,,,,,MEXY,,MISSING,2025-12-13T03:11:38.850312,
RTE_MEZEL,MEZEL,TX,RTE_ODRE,45.745681,3.2370337,OSM,EXACT,63.0,,63kV,OFFICIAL,,,,RTE,,Puy-de-Dôme,,Poste de transformation,distribution,way_71571863,1.0,,MEZEL,,MISSING,2025-12-13T03:11:38.850316,
RTE_MILLE,MILLERY (54),TX,RTE_ODRE,45.6483665,4.7714384,OSM,EXACT,63.0,,63kV,OFFICIAL,,,,RTE,,Meurthe-et-Moselle,,Poste de transformation,distribution,way_130330943,1.0,,MILLE,,MISSING,2025-12-13T03:11:38.850319,
RTE_MIREV,MIREVAL,TX,RTE_ODRE,,,MISSING,MISSING,63.0,,63kV,OFFICIAL,,,,RTE,,Hérault,,Poste de transformation,,,,,MIREV,,MISSING,2025-12-13T03:11:38.850322,
RTE_MOISE,MOISENAY,TX,RTE_ODRE,48.5694838,2.7517024,OSM,EXACT,225.0,,225kV,OFFICIAL,,,,RTE,,Seine-et-Marne,,Poste de transformation,traction,way_106284701,1.0,,MOISE,,MISSING,2025-12-13T03:11:38.850326,
RTE_MOISY,MOISY,TX,RTE_ODRE,,,MISSING,MISSING,90.0,,90kV,OFFICIAL,,,,RTE,,Loir-et-Cher,,Poste de transformation,,,,,MOISY,,MISSING,2025-12-13T03:11:38.850329,
RTE_MORBR,MORBRAS,TX,RTE_ODRE,48.778795,2.6484339,OSM,EXACT,400.0,,400kV,OFFICIAL,,,,RTE,,Val-de-Marne,,Poste de transformation,transmission,way_27266058,1.0,,MORBR,,MISSING,2025-12-13T03:11:38.850336,
RTE_MTBRO,MONTBRON,TX,RTE_ODRE,45.6735644,0.4933296,OSM,EXACT,90.0,,90kV,OFFICIAL,,,,RTE,,Charente,,Poste de transformation,distribution,way_129559622,1.0,,MTBRO,,MISSING,2025-12-13T03:11:38.850342,
RTE_MTEND,MONTENDRE,TX,RTE_ODRE,,,MISSING,MISSING,90.0,,90kV,OFFICIAL,,,,RTE,,Charente-Maritime,,Poste de transformation,,,,,MTEND,,MISSING,2025-12-13T03:11:38.850347,
RTE_MTGUY,MONTGUYON,TX,RTE_ODRE,45.2034106,-0.2184778,OSM,EXACT,225.0,,225kV,OFFICIAL,,,,RTE,,Charente-Maritime,,Poste de transformation,transmission,way_142360067,1.0,,MTGUY,,MISSING,2025-12-13T03:11:38.850351,
RTE_MTMIR,MONTMIRAIL,TX,RTE_ODRE,,,MISSING,MISSING,63.0,,63kV,OFFICIAL,,,,RTE,,Aisne,,Poste de transformation,,,,,MTMIR,,MISSING,2025-12-13T03:11:38.850356,
RTE_NAINT,NAINTRE,TX,RTE_ODRE,,,MISSING,MISSING,90.0,,90kV,OFFICIAL,,,,RTE,,Vienne,,Poste de transformation,,,,,NAINT,,MISSING,2025-12-13T03:11:38.850362,
RTE_NEUVY,NEUVY,TX,RTE_ODRE,47.5108167,2.8928822,OSM,EXACT,63.0,,63kV,OFFICIAL,,,,RTE,,Loiret,,Poste de transformation,traction,way_262483936,0.9,,NEUVY,,MISSING,2025-12-13T03:11:38.850367,
RTE_NYONS,NYONS,TX,RTE_ODRE,,,MISSING,MISSING,63.0,,63kV,OFFICIAL,,,,RTE,,Drôme,,Poste de transformation,,,,,NYONS,,MISSING,2025-12-13T03:11:38.850372,
RTE_O.CEI,OUEST-CEINTURE,TX,RTE_ODRE,48.8295544,2.304475,OSM,EXACT,63.0,,63kV,OFFICIAL,,,,RTE,,Hauts-de-Seine,,Poste de transformation,traction,way_353946232,0.9,,O.CEI,,MISSING,2025-12-13T03:11:38.850377,
RTE_ORAN5,ORANGERIE (STRASBOURG),TX,RTE_ODRE,48.5957955,7.7731052,OSM,EXACT,63.0,,63kV,OFFICIAL,,,,RTE,,Bas-Rhin,,Poste de transformation,distribution,way_41685974,1.0,,ORAN5,,MISSING,2025-12-13T03:11:38.850383,
RTE_ORCHI,ORCHIES,TX,RTE_ODRE,,,MISSING,MISSING,90.0,,90kV,OFFICIAL,,,,RTE,,Nord,,Poste de transformation,,,,,ORCHI,,MISSING,2025-12-13T03:11:38.850388,
RTE_ORTH5,ORTHEZ,TX,RTE_ODRE,43.650017,1.4804295,OSM,EXACT,63.0,,63kV,OFFICIAL,,,,RTE,,Pyrénées-Atlantiques,,Poste de transformation,minor_distribution,way_166449752,1.0,,ORTH5,,MISSING,2025-12-13T03:11:38.850394,
RTE_OSERA,OSERAIE,TX,RTE_ODRE,,,MISSING,MISSING,63.0,,63kV,OFFICIAL,,,,RTE,,Seine-et-Marne,,Poste de transformation,,,,,OSERA,,MISSING,2025-12-13T03:11:38.850400,
RTE_P.MEE,PONT-DU-MEE,TX,RTE_ODRE,45.1811025,3.0558347,OSM,EXACT,63.0,,63kV,OFFICIAL,,,,RTE,,Seine-et-Marne,,Poste de transformation,minor_distribution,node_2509899490,0.9,,P.MEE,,MISSING,2025-12-13T03:11:38.850405,
RTE_PARC,PARC (LE),TX,RTE_ODRE,46.2003797,-1.3567016,OSM,EXACT,225.0,,225kV,OFFICIAL,,,,RTE,,Sarthe,,Poste de transformation,minor_distribution,node_5017163757,1.0,,PARC,,MISSING,2025-12-13T03:11:38.850414,
RTE_PERRA,PERRACHE,TX,RTE_ODRE,,,MISSING,MISSING,225.0,,225kV,OFFICIAL,,,,RTE,,Rhône,,Poste de transformation,,,,,PERRA,,MISSING,2025-12-13T03:11:38.850421,
RTE_PEYRO,PEYROU,TX,RTE_ODRE,43.6087817,3.8647824,OSM,EXACT,225.0,,225kV,OFFICIAL,,,,RTE,,Hérault,,Poste de transformation,,way_75389646,1.0,,PEYRO,,MISSING,2025-12-13T03:11:38.850425,
RTE_PITHI,PITHIVIERS,TX,RTE_ODRE,48.1689065,2.2213079,OSM,EXACT,90.0,,90kV,OFFICIAL,,,,RTE,,Loiret,,Poste de transformation,,way_42958093,1.0,,PITHI,,MISSING,2025-12-13T03:11:38.850429,
RTE_PLOUA,PLOUAY,TX,RTE_ODRE,47.9327169,-3.2835016,OSM,EXACT,63.0,,63kV,OFFICIAL,,,,RTE,,Morbihan,,Poste de transformation,transmission,way_260374609,1.0,,PLOUA,,MISSING,2025-12-13T03:11:38.850433,
RTE_PLUMA,PLUMASSERIE (LA),TX,RTE_ODRE,48.0026504,0.1769549,OSM,EXACT,90.0,,90kV,OFFICIAL,,,,RTE,,Sarthe,,Poste de transformation,traction,way_28510212,0.9,,PLUMA,,MISSING,2025-12-13T03:11:38.850438,
RTE_Q.ISS,QUAI D ISSY,TX,RTE_ODRE,48.8355919,2.2676879,OSM,EXACT,63.0,,63kV,OFFICIAL,,,,RTE,,Hauts-de-Seine,,Poste de transformation,traction,way_184266319,1.0,,Q.ISS,,MISSING,2025-12-13T03:11:38.850441,
RTE_R.MOL,RUE DE MOLSHEIM,TX,RTE_ODRE,,,MISSING,MISSING,63.0,,63kV,OFFICIAL,,,,RTE,,Bas-Rhin,,Poste de transformation,,,,,R.MOL,,MISSING,2025-12-13T03:11:38.850445,
RTE_R.NE5,ROCHEFORT (PORTIQUE),TX,RTE_ODRE,,,MISSING,MISSING,63.0,,63kV,OFFICIAL,,,,RTE,,Jura,,Poste de transformation,,,,,R.NE5,,MISSING,2025-12-13T03:11:38.850448,
RTE_RANVI,RANVILLE,TX,RTE_ODRE,49.2164188,-0.2818295,OSM,EXACT,225.0,,225kV,OFFICIAL,,,,RTE,,Calvados,,Poste de transformation,transmission,way_108089073,1.0,,RANVI,,MISSING,2025-12-13T03:11:38.850452,
RTE_RIORG,RIORGES,TX,RTE_ODRE,46.0580738,4.055898,OSM,EXACT,225.0,,225kV,OFFICIAL,,,,RTE,,Loire,,Poste de transformation,transmission,way_118121877,1.0,,RIORG,,MISSING,2025-12-13T03:11:38.850455,
RTE_RIOUP,RIOUPEROUX,TX,RTE_ODRE,,,MISSING,MISSING,63.0,,63kV,OFFICIAL,,,,RTE,,Isère,,Poste de transformation,,,,,RIOUP,,MISSING,2025-12-13T03:11:38.850458,
RTE_ROBE5,ROBERTSAU,TX,RTE_ODRE,48.614321,7.7804195,OSM,EXACT,63.0,,63kV,OFFICIAL,,,,RTE,,Bas-Rhin,,Poste de transformation,distribution,way_45236732,1.0,,ROBE5,,MISSING,2025-12-13T03:11:38.850462,
RTE_RODE,RODE (LA),TX,RTE_ODRE,,,MISSING,MISSING,63.0,,63kV,OFFICIAL,,,,RTE,,Var,,Poste de transformation,,,,,RODE,,MISSING,2025-12-13T03:11:38.850465,
RTE_ROJA,ROJA,TX,RTE_ODRE,44.4113615,0.3058357,OSM,EXACT,63.0,,63kV,OFFICIAL,,,,RTE,,Lot-et-Garonne,,Poste de transformation,distribution,way_191913933,1.0,,ROJA,,MISSING,2025-12-13T03:11:38.850468,
RTE_ROLAM,ROLAMPONT,TX,RTE_ODRE,47.9234335,5.28983,OSM,EXACT,225.0,,225kV,OFFICIAL,,,,RTE,,Haute-Marne,,Poste de transformation,transmission,way_120553316,1.0,,ROLAM,,MISSING,2025-12-13T03:11:38.850474,
RTE_ROUI5,ROUILLAC,TX,RTE_ODRE,45.7639935,-0.0745053,OSM,EXACT,90.0,,90kV,OFFICIAL,,,,RTE,,Charente,,Poste de transformation,distribution,way_155112955,1.0,,ROUI5,,MISSING,2025-12-13T03:11:38.850479,
RTE_S.GIR,SALIN-DE-GIRAUD,TX,RTE_ODRE,43.4167755,4.7308781,OSM,EXACT,63.0,,63kV,OFFICIAL,,,,RTE,,Bouches-du-Rhône,,Poste de transformation,yes,way_183858480,1.0,,S.GIR,,MISSING,2025-12-13T03:11:38.850483,
RTE_S.UNI,SARRE-UNION,TX,RTE_ODRE,48.9338732,7.0598935,OSM,EXACT,63.0,,63kV,OFFICIAL,,,,RTE,,Bas-Rhin,,Poste de transformation,,way_381700674,1.0,,S.UNI,,MISSING,2025-12-13T03:11:38.850488,
RTE_SABLE,SABLE,TX,RTE_ODRE,48.8901488,2.401725,OSM,EXACT,90.0,,90kV,OFFICIAL,,,,RTE,,Sarthe,,Poste de transformation,minor_distribution,node_7160876722,1.0,,SABLE,,MISSING,2025-12-13T03:11:38.850491,
RTE_SALLE,SALLES(-SOUS-BOIS),TX,RTE_ODRE,45.1163893,4.2819632,OSM,EXACT,63.0,,63kV,OFFICIAL,,,,RTE,,Drôme,,Poste de transformation,minor_distribution,node_5750053678,0.9,,SALLE,,MISSING,2025-12-13T03:11:38.850494,
RTE_SARR7,SARRALBE,TX,RTE_ODRE,49.0091251,7.0324504,OSM,EXACT,63.0,,63kV,OFFICIAL,,,,RTE,,Moselle,,Poste de transformation,distribution,way_491655545,1.0,,SARR7,,MISSING,2025-12-13T03:11:38.850497,
RTE_SARRA,SARRANS,TX,RTE_ODRE,44.8288626,2.7404223,OSM,EXACT,225.0,,225kV,OFFICIAL,,,,RTE,,Aveyron,,Poste de transformation,generation,way_262121267,1.0,,SARRA,,MISSING,2025-12-13T03:11:38.850501,
RTE_SARRY,SARRY,TX,RTE_ODRE,47.6685001,4.0875598,OSM,EXACT,225.0,,225kV,OFFICIAL,,,,RTE,,Yonne,,Poste de transformation,traction,way_128381283,1.0,,SARRY,,MISSING,2025-12-13T03:11:38.850504,
RTE_SARSA,SARSAN,TX,RTE_ODRE,,,MISSING,MISSING,63.0,,63kV,OFFICIAL,,,,RTE,,Hautes-Pyrénées,,Poste de transformation,,,,,SARSA,,MISSING,2025-12-13T03:11:38.850509,
RTE_SAUTI,SAUTILLET,TX,RTE_ODRE,49.3936585,3.1103179,OSM,EXACT,63.0,,63kV,OFFICIAL,,,,RTE,,Oise,,Poste de transformation,distribution,way_198169847,1.0,,SAUTI,,MISSING,2025-12-13T03:11:38.850512,
RTE_SOULL,SOULLANS,TX,RTE_ODRE,46.7844889,-1.8871701,OSM,EXACT,225.0,,225kV,OFFICIAL,,,,RTE,,Vendée,,Poste de transformation,transmission,way_480525512,1.0,,SOULL,,MISSING,2025-12-13T03:11:38.850516,
RTE_SSAN5,ST-ANTONIN,TX,RTE_ODRE,,,MISSING,MISSING,63.0,,63kV,OFFICIAL,,,,RTE,,Tarn-et-Garonne,,Poste de transformation,,,,,SSAN5,,MISSING,2025-12-13T03:11:38.850519,
RTE_SSCH6,ST-CHARLES,TX,RTE_ODRE,47.7498121,7.3679388,OSM,EXACT,63.0,,63kV,OFFICIAL,,,,RTE,,Meurthe-et-Moselle,,Poste de transformation,minor_distribution,way_186089080,0.9,,SSCH6,,MISSING,2025-12-13T03:11:38.850524,
RTE_SSFOL,ST-JEAN-DE-FOLLEVILLE,TX,RTE_ODRE,,,MISSING,MISSING,90.0,,90kV,OFFICIAL,,,,RTE,,Seine-Maritime,,Poste de transformation,,,,,SSFOL,,MISSING,2025-12-13T03:11:38.850527,
RTE_SSGUI,ST-GUILLERME,TX,RTE_ODRE,,,MISSING,MISSING,225.0,,225kV,OFFICIAL,,,,RTE,,Isère,,Poste de transformation,,,,,SSGUI,,MISSING,2025-12-13T03:11:38.850532,
RTE_SSSUL,ST-SULPICE,TX,RTE_ODRE,,,MISSING,MISSING,63.0,,63kV,OFFICIAL,,,,RTE,,Haute-Garonne,,Poste de transformation,,,,,SSSUL,,MISSING,2025-12-13T03:11:38.850536,
RTE_SYNTH,SYNTHESE,TX,RTE_ODRE,,,MISSING,MISSING,63.0,,63kV,OFFICIAL,,,,RTE,,Moselle,,Poste de transformation,,,,,SYNTH,,MISSING,2025-12-13T03:11:38.850541,
RTE_TARAS,TARASCON,TX,RTE_ODRE,42.851478,1.5974256,OSM,EXACT,225.0,,225kV,OFFICIAL,,,,RTE,,Ariège,,Poste de transformation,distribution,way_118400623,1.0,,TARAS,,MISSING,2025-12-13T03:11:38.850544,
RTE_TARBE,TARBES (ALSTHOM A SEMEAC),TX,RTE_ODRE,,,MISSING,MISSING,63.0,,63kV,OFFICIAL,,,,RTE,,Hautes-Pyrénées,,Poste de transformation,,,,,TARBE,,MISSING,2025-12-13T03:11:38.850547,
RTE_TENAY,TENAY,TX,RTE_ODRE,,,MISSING,MISSING,63.0,,63kV,OFFICIAL,,,,RTE,,Ain,,Poste de transformation,,,,,TENAY,,MISSING,2025-12-13T03:11:38.850551,
RTE_TURCK,TURCKHEIM,TX,RTE_ODRE,,,MISSING,MISSING,63.0,,63kV,OFFICIAL,,,,RTE,,Haut-Rhin,,Poste de transformation,,,,,TURCK,,MISSING,2025-12-13T03:11:38.850554,
RTE_V.FEZ,VIC-FEZENSAC,TX,RTE_ODRE,41.9570351,2.2821754,OSM,EXACT,63.0,,63kV,OFFICIAL,,,,RTE,,Gers,,Poste de transformation,transmission,way_178294745,0.9,,V.FEZ,,MISSING,2025-12-13T03:11:38.850558,
RTE_V.MON,VEUVES-MONTEAUX,TX,RTE_ODRE,47.4761111,1.1245859,OSM,EXACT,90.0,,90kV,OFFICIAL,,,,RTE,,Indre-et-Loire,,Poste de transformation,traction,way_576833991,1.0,,V.MON,,MISSING,2025-12-13T03:11:38.850561,
RTE_VALLI,VALLIERES,TX,RTE_ODRE,,,MISSING,MISSING,63.0,,63kV,OFFICIAL,,,,RTE,,Savoie,,Poste de transformation,,,,,VALLI,,MISSING,2025-12-13T03:11:38.850564,
RTE_VARAN,VARANGEVILLE,TX,RTE_ODRE,48.630927,6.3338938,OSM,EXACT,63.0,,63kV,OFFICIAL,,,,RTE,,Meurthe-et-Moselle,,Poste de transformation,,way_146575554,1.0,,VARAN,,MISSING,2025-12-13T03:11:38.850568,
RTE_VAUCA,VAUCANSON,TX,RTE_ODRE,45.1915503,4.2304734,OSM,EXACT,63.0,,63kV,OFFICIAL,,,,RTE,,Isère,,Poste de transformation,minor_distribution,node_5783594029,1.0,,VAUCA,,MISSING,2025-12-13T03:11:38.850571,
RTE_VECQU,VECQUEMONT,TX,RTE_ODRE,,,MISSING,MISSING,90.0,,90kV,OFFICIAL,,,,RTE,,Somme,,Poste de transformation,,,,,VECQU,,MISSING,2025-12-13T03:11:38.850575,
RTE_VERLH,VERLHAGUET,TX,RTE_ODRE,43.9827621,1.317515,OSM,EXACT,225.0,,225kV,OFFICIAL,,,,RTE,,Tarn-et-Garonne,,Poste de transformation,transmission,way_114359287,1.0,,VERLH,,MISSING,2025-12-13T03:11:38.850578,
RTE_VIAUD,VIAUD,TX,RTE_ODRE,49.0531682,6.5710388,OSM,EXACT,63.0,,63kV,OFFICIAL,,,,RTE,,Moselle,,Poste de transformation,distribution,way_546211456,1.0,,VIAUD,,MISSING,2025-12-13T03:11:38.850581,
RTE_VICLA,VICLAIRE,TX,RTE_ODRE,45.600654,6.8606125,OSM,EXACT,63.0,,63kV,OFFICIAL,,,,RTE,,Savoie,,Poste de transformation,transmission,way_455838176,1.0,,VICLA,,MISSING,2025-12-13T03:11:38.850584,
RTE_VIVIE,VIVIEZ,TX,RTE_ODRE,,,MISSING,MISSING,63.0,,63kV,OFFICIAL,,,,RTE,,Aveyron,,Poste de transformation,,,,,VIVIE,,MISSING,2025-12-13T03:11:38.850590,
RTE_VLEGU,VILLEGUSIEN,TX,RTE_ODRE,47.7429293,5.324252,OSM,EXACT,63.0,,63kV,OFFICIAL,,,,RTE,,Haute-Marne,,Poste de transformation,traction,way_120675537,1.0,,VLEGU,,MISSING,2025-12-13T03:11:38.850593,
RTE_WESTH,WESTHOUCK (COPENOR G.I.E.),TX,RTE_ODRE,51.0319772,2.2476442,OSM,EXACT,225.0,,225kV,OFFICIAL,,,,RTE,,Nord,,Poste de transformation,industrial,way_1233840739,1.0,,WESTH,,MISSING,2025-12-13T03:11:38.850597,
RTE_WOEST,WOESTYNE,TX,RTE_ODRE,,,MISSING,MISSING,225.0,,225kV,OFFICIAL,,,,RTE,,Pas-de-Calais,,Poste de transformation,,,,,WOEST,,MISSING,2025-12-13T03:11:38.850600,
RTE_YDES,YDES,TX,RTE_ODRE,,,MISSING,MISSING,90.0,,90kV,OFFICIAL,,,,RTE,,Cantal,,Poste de transformation,,,,,YDES,,MISSING,2025-12-13T03:11:38.850606,
RTE_ZANCE,ANCEL / MARGE PRATC 1,TX,RTE_ODRE,,,MISSING,MISSING,63.0,,63kV,OFFICIAL,,,,RTE,,Haute-Loire,,Point de piquage,,,,,ZANCE,,MISSING,2025-12-13T03:11:38.850609,
RTE_ZARQ5,ARQUE / BATAV LONG9 2,TX,RTE_ODRE,,,MISSING,MISSING,90.0,,90kV,OFFICIAL,,,,RTE,,Pas-de-Calais,,Point de piquage,,,,,ZARQ5,,MISSING,2025-12-13T03:11:38.850613,
RTE_ZAUB7,PIQUAGE AUBRIVES,TX,RTE_ODRE,,,MISSING,MISSING,63.0,,63kV,OFFICIAL,,,,RTE,,Meurthe-et-Moselle,,Point de piquage,,,,,ZAUB7,,MISSING,2025-12-13T03:11:38.850616,
RTE_ZB.L5,PIQUAGE BORDERES-ET-LAMENSANS (LIAISON A.ADOZ31NAOUT),TX,RTE_ODRE,,,MISSING,MISSING,63.0,,63kV,OFFICIAL,,,,RTE,,Landes,,Point de piquage,,,,,ZB.L5,,MISSING,2025-12-13T03:11:38.850619,
RTE_ZBRAC,BRACH / BELLE CULOZ 1,TX,RTE_ODRE,,,MISSING,MISSING,63.0,,63kV,OFFICIAL,,,,RTE,,Ain,,Point de piquage,,,,,ZBRAC,,MISSING,2025-12-13T03:11:38.850623,
RTE_ZBRIC,PIQUAGE BRICHE A SAINT-DENIS (ZBRIC),TX,RTE_ODRE,47.9198839,1.9298092,OSM,EXACT,225.0,,225kV,OFFICIAL,,,,RTE,,Val-d'Oise,,Point de piquage,minor_distribution,way_124665313,0.9,,ZBRIC,,MISSING,2025-12-13T03:11:38.850626,
RTE_ZCLAY,PIQUAGE A CLAYES,TX,RTE_ODRE,,,MISSING,MISSING,,,HORS TENSION,OFFICIAL,,,,RTE,,Ille-et-Vilaine,,Point de piquage,,,,,ZCLAY,,MISSING,2025-12-13T03:11:38.850629,
RTE_ZCOL.,PIQUAGE COLMAR-NORD,TX,RTE_ODRE,43.966428,4.1231996,OSM,EXACT,63.0,,63kV,OFFICIAL,,,,RTE,,Haut-Rhin,,Point de piquage,minor_distribution,node_7578251774,0.9,,ZCOL.,,MISSING,2025-12-13T03:11:38.850632,
RTE_ZCREM,PIQUAGE A CREMADE,TX,RTE_ODRE,44.1329866,4.8409814,OSM,EXACT,63.0,,63kV,OFFICIAL,,,,RTE,,Vaucluse,,Point de piquage,traction,way_135203107,0.9,,ZCREM,,MISSING,2025-12-13T03:11:38.850635,
RTE_ZFAN5,PIQUAGE FANAUDES A MONTMAGNY (ZFAN5),TX,RTE_ODRE,48.9828478,2.3031712,OSM,EXACT,225.0,,225kV,OFFICIAL,,,,RTE,,Val-d'Oise,,Point de piquage,distribution,way_36144696,0.9,,ZFAN5,,MISSING,2025-12-13T03:11:38.850640,
RTE_ZFTAI,FTAI6 / ARRAS GAVRE 1,TX,RTE_ODRE,50.3070168,2.7628728,OSM,EXACT,90.0,,90kV,OFFICIAL,,,,RTE,,Pas-de-Calais,,Point de piquage,,way_176878243,0.9,,ZFTAI,,MISSING,2025-12-13T03:11:38.850644,
RTE_ZHER7,PIQUAGE HERBLAY A HERBLAY (ZHER7),TX,RTE_ODRE,,,MISSING,MISSING,225.0,,225kV,OFFICIAL,,,,RTE,,Val-d'Oise,,Point de piquage,,,,,ZHER7,,MISSING,2025-12-13T03:11:38.850647,
RTE_ZHERB,PIQUAGE HERBLAY A HERBLAY (ZHERB),TX,RTE_ODRE,,,MISSING,MISSING,225.0,,225kV,OFFICIAL,,,,RTE,,Val-d'Oise,,Point de piquage,,,,,ZHERB,,MISSING,2025-12-13T03:11:38.850651,
RTE_ZMALL,PIQUAGE A MALLE (LA),TX,RTE_ODRE,,,MISSING,MISSING,63.0,,63kV,OFFICIAL,,,,RTE,,Bouches-du-Rhône,,Point de piquage,,,,,ZMALL,,MISSING,2025-12-13T03:11:38.850654,
RTE_ZMALM,PIQUAGE A SAINT-GERMAIN-DE-FRESNEY,TX,RTE_ODRE,45.615581,5.20462,OSM,EXACT,90.0,,90kV,OFFICIAL,,,,RTE,,Eure,,Point de piquage,minor_distribution,way_39545519,0.9,,ZMALM,,MISSING,2025-12-13T03:11:38.850657,
RTE_ZMAUP,PIQUAGE MAUPAS,TX,RTE_ODRE,46.3559798,6.7002305,OSM,EXACT,63.0,,63kV,OFFICIAL,,,,RTE,,Marne,,Point de piquage,minor_distribution,node_7101992863,0.9,,ZMAUP,,MISSING,2025-12-13T03:11:38.850660,
RTE_ZMESN,PIQUAGE A MESNAY,TX,RTE_ODRE,46.9108578,5.7967692,OSM,EXACT,63.0,,63kV,OFFICIAL,,,,RTE,,Jura,,Point de piquage,traction,way_105701832,0.9,,ZMESN,,MISSING,2025-12-13T03:11:38.850665,
RTE_ZMETH,PIQUAGE A METHANIER,TX,RTE_ODRE,,,MISSING,MISSING,63.0,,63kV,OFFICIAL,,,,RTE,,Bouches-du-Rhône,,Point de piquage,,,,,ZMETH,,MISSING,2025-12-13T03:11:38.850668,
RTE_ZMRN6,PIQUAGE A MARTINIERE,TX,RTE_ODRE,44.2828255,4.7374481,OSM,EXACT,63.0,,63kV,OFFICIAL,,,,RTE,,Vaucluse,,Point de piquage,distribution,way_278718502,0.9,,ZMRN6,,MISSING,2025-12-13T03:11:38.850672,
RTE_ZMTJA,PIQUAGE MONTJAY A LES ULIS (ZMTJA),TX,RTE_ODRE,,,MISSING,MISSING,225.0,,225kV,OFFICIAL,,,,RTE,,Essonne,,Point de piquage,,,,,ZMTJA,,MISSING,2025-12-13T03:11:38.850675,
RTE_ZP.B6,P.BEN / B.ETO MOUCH 1,TX,RTE_ODRE,,,MISSING,MISSING,63.0,,63kV,OFFICIAL,,,,RTE,,Rhône,,Point de piquage,,,,,ZP.B6,,MISSING,2025-12-13T03:11:38.850678,
RTE_ZPANN,PIQUAGE PANNESIERE,TX,RTE_ODRE,,,MISSING,MISSING,63.0,,63kV,OFFICIAL,,,,RTE,,Nièvre,,Point de piquage,,,,,ZPANN,,MISSING,2025-12-13T03:11:38.850681,
RTE_ZPENN,PIQUAGE 1 AUX PENNES,TX,RTE_ODRE,,,MISSING,MISSING,63.0,,63kV,OFFICIAL,,,,RTE,,Bouches-du-Rhône,,Point de piquage,,,,,ZPENN,,MISSING,2025-12-13T03:11:38.850684,
RTE_ZPOM5,POMBL / CONTA POM.C 1,TX,RTE_ODRE,,,MISSING,MISSING,63.0,,63kV,OFFICIAL,,,,RTE,,Savoie,,Point de piquage,,,,,ZPOM5,,MISSING,2025-12-13T03:11:38.850687,
RTE_ZPOUA,POUAN / CRAON CTAUB 1,TX,RTE_ODRE,,,MISSING,MISSING,90.0,,90kV,OFFICIAL,,,,RTE,,Loire-Atlantique,,Point de piquage,,,,,ZPOUA,,MISSING,2025-12-13T03:11:38.850692,
RTE_ZROC7,ROCH5 / DARDI G.VIO 1,TX,RTE_ODRE,,,MISSING,MISSING,63.0,,63kV,OFFICIAL,,,,RTE,,Rhône,,Point de piquage,,,,,ZROC7,,MISSING,2025-12-13T03:11:38.850696,
RTE_ZTOU7,PIQUAGE TOURNAY SNCF (LIAISON BOUHEZ31LUGRA),TX,RTE_ODRE,44.138083,4.819391,OSM,EXACT,63.0,,63kV,OFFICIAL,,,,RTE,,Hautes-Pyrénées,,Point de piquage,,way_79075607,0.9,,ZTOU7,,MISSING,2025-12-13T03:11:38.850699,
RTE_ZTRAM,PIQUAGE TRAMAZAYGUES (LIAISON BORDEZ31BORD8),TX,RTE_ODRE,,,MISSING,MISSING,63.0,,63kV,OFFICIAL,,,,RTE,,Hautes-Pyrénées,,Point de piquage,,,,,ZTRAM,,MISSING,2025-12-13T03:11:38.850702,
RTE_ZTREF,PIQUAGE A TREFLEVENEZ,TX,RTE_ODRE,,,MISSING,MISSING,225.0,,225kV,OFFICIAL,,,,RTE,,Finistère,,Point de piquage,,,,,ZTREF,,MISSING,2025-12-13T03:11:38.850706,
RTE_ZPUYC,PIQUAGE A PUYCHENIT,TX,RTE_ODRE,,,MISSING,MISSING,90.0,,90kV,OFFICIAL,,,,RTE,,Dordogne,,Point de piquage,,,,,ZPUYC,,MISSING,2025-12-13T03:11:38.850712,
RTE_ZSSE6,PIQUAGE A SAINT-ESTEPHE,TX,RTE_ODRE,,,MISSING,MISSING,63.0,,63kV,OFFICIAL,,,,RTE,,Gironde,,Point de piquage,,,,,ZSSE6,,MISSING,2025-12-13T03:11:38.850715,
RTE_ZVA10,PIQUAGE A VALDEROURE,TX,RTE_ODRE,43.7881722,6.6476839,OSM,EXACT,225.0,,225kV,OFFICIAL,,,,RTE,,Var,,Point de piquage,distribution,way_818615644,0.9,,ZVA10,,MISSING,2025-12-13T03:11:38.850720,
RTE_EYRE5,EYREIN,TX,RTE_ODRE,,,MISSING,MISSING,90.0,,90kV,OFFICIAL,,,,RTE,,Corrèze,,Poste de transformation,,,,,EYRE5,,MISSING,2025-12-13T03:11:38.850724,
RTE_ZQ.EC,PP A LEFFRINCKOUCKE (DUNES / G.SYN Q.ECL 1),TX,RTE_ODRE,,,MISSING,MISSING,225.0,,225kV,OFFICIAL,,,,RTE,,Nord,,Point de piquage,,,,,ZQ.EC,,MISSING,2025-12-13T03:11:38.850727,
RTE_SSPLA,STE-CROIX-EN-PLAINE,TX,RTE_ODRE,44.7142986,1.1431508,OSM,EXACT,63.0,,63kV,OFFICIAL,,,,RTE,,Haut-Rhin,,Poste de transformation,minor_distribution,node_5769056350,0.9,,SSPLA,,MISSING,2025-12-13T03:11:38.850730,
RTE_ZLINA,PIQUAGE A LINAS (PRINCIPAL),TX,RTE_ODRE,,,MISSING,MISSING,225.0,,225kV,OFFICIAL,,,,RTE,,Essonne,,Point de piquage,,,,,ZLINA,,MISSING,2025-12-13T03:11:38.850733,
RTE_GERR5,GER,TX,RTE_ODRE,,,MISSING,MISSING,90.0,,90kV,OFFICIAL,,,,RTE,,Manche,,Poste de transformation,,,,,GERR5,,MISSING,2025-12-13T03:11:38.850737,
RTE_ZBLA6,PIQUAGE A BLANQUEFORT,TX,RTE_ODRE,44.9180746,-0.6117565,OSM,EXACT,63.0,,63kV,OFFICIAL,,,,RTE,,Gironde,,Point de piquage,,way_161776596,0.9,,ZBLA6,,MISSING,2025-12-13T03:11:38.850740,
RTE_ZCNR7,PIQUAGE CHANTEREINE A THOUROTTE (ZCNR7),TX,RTE_ODRE,49.4863405,2.8844274,OSM,EXACT,63.0,,63kV,OFFICIAL,,,,RTE,,Oise,,Point de piquage,,way_118216379,0.9,,ZCNR7,,MISSING,2025-12-13T03:11:38.850744,
RTE_ZPUYA,PIQUAGE A PUYALOUS,TX,RTE_ODRE,,,MISSING,MISSING,63.0,,63kV,OFFICIAL,,,,RTE,,Pyrénées-Atlantiques,,Point de piquage,,,,,ZPUYA,,MISSING,2025-12-13T03:11:38.850749,
RTE_ZLES8,PIQUAGE A LESCAR,TX,RTE_ODRE,43.3152189,-0.4346341,OSM,EXACT,63.0,,63kV,OFFICIAL,,,,RTE,,Pyrénées-Atlantiques,,Point de piquage,transmission,way_146449674,0.9,,ZLES8,,MISSING,2025-12-13T03:11:38.850752,
RTE_CZMEL,COURMELLES,TX,RTE_ODRE,,,MISSING,MISSING,63.0,,63kV,OFFICIAL,,,,RTE,,Aisne,,Poste de transformation,,,,,CZMEL,,MISSING,2025-12-13T03:11:38.850756,
RTE_ZGOUD,PIQUAGE GOUDOULI,TX,RTE_ODRE,,,MISSING,MISSING,63.0,,63kV,OFFICIAL,,,,RTE,,Haute-Garonne,,Point de piquage,,,,,ZGOUD,,MISSING,2025-12-13T03:11:38.850759,
RTE_ZVLE6,PIQUAGE A VILLENOUVELLE,TX,RTE_ODRE,,,MISSING,MISSING,63.0,,63kV,OFFICIAL,,,,RTE,,Haute-Garonne,,Point de piquage,,,,,ZVLE6,,MISSING,2025-12-13T03:11:38.850762,
RTE_MTAG5,MONTAGNETTE (LA),TX,RTE_ODRE,,,MISSING,MISSING,225.0,,225kV,OFFICIAL,,,,RTE,,Bouches-du-Rhône,,Poste de transformation,,,,,MTAG5,,MISSING,2025-12-13T03:11:38.850765,
RTE_ZMTAU,PIQUAGE A MONTAUROUX,TX,RTE_ODRE,,,MISSING,MISSING,63.0,,63kV,OFFICIAL,,,,RTE,,Var,,Point de piquage,,,,,ZMTAU,,MISSING,2025-12-13T03:11:38.850768,
RTE_ZP.CR,PIQUAGE PONT DU CRIEU,TX,RTE_ODRE,45.1811025,3.0558347,OSM,EXACT,63.0,,63kV,OFFICIAL,,,,RTE,,Ariège,,Point de piquage,minor_distribution,node_2509899490,0.9,,ZP.CR,,MISSING,2025-12-13T03:11:38.850772,
RTE_COMBO,COMBOURG,TX,RTE_ODRE,48.4201828,-1.7210323,OSM,EXACT,90.0,,90kV,OFFICIAL,,,,RTE,,Ille-et-Vilaine,,Poste de transformation,transmission,way_138320661,1.0,,COMBO,,MISSING,2025-12-13T03:11:38.850775,
RTE_COMPE,COMPERTRIX,TX,RTE_ODRE,48.9414788,4.3473699,OSM,EXACT,63.0,,63kV,OFFICIAL,,,,RTE,,Marne,,Poste de transformation,,way_179795484,1.0,,COMPE,,MISSING,2025-12-13T03:11:38.850779,
RTE_CPNIE,CHAMPAGNIER,TX,RTE_ODRE,45.1061878,5.7092808,OSM,EXACT,400.0,,400kV,OFFICIAL,,,,RTE,,Isère,,Poste de transformation,transmission,way_69813552,1.0,,CPNIE,,MISSING,2025-12-13T03:11:38.850782,
RTE_CROZE,CROZES,TX,RTE_ODRE,43.2515916,2.8271593,OSM,EXACT,63.0,,63kV,OFFICIAL,,,,RTE,,Aude,,Poste de transformation,,way_590604205,0.9,,CROZE,,MISSING,2025-12-13T03:11:38.850785,
RTE_CSLN5,CASTELNAU (CLIENT),TX,RTE_ODRE,43.6289988,3.907462,OSM,EXACT,63.0,,63kV,OFFICIAL,,,,RTE,,Hérault,,Poste de transformation,traction,way_26189753,1.0,,CSLN5,,MISSING,2025-12-13T03:11:38.850789,
RTE_CTMAL,CHATEAU MALO,TX,RTE_ODRE,48.6225458,-1.944435,OSM,EXACT,63.0,,63kV,OFFICIAL,,,,RTE,,Ille-et-Vilaine,,Poste de transformation,traction,way_242581302,1.0,,CTMAL,,MISSING,2025-12-13T03:11:38.850792,
RTE_CUS.P,CUSSET-POSTE,TX,RTE_ODRE,45.7649996,4.9162348,OSM,EXACT,225.0,,225kV,OFFICIAL,,,,RTE,,Rhône,,Poste de transformation,transmission,way_114254761,0.9,,CUS.P,,MISSING,2025-12-13T03:11:38.850797,
RTE_DANT5,DANTON,TX,RTE_ODRE,48.7126825,2.2585313,OSM,EXACT,63.0,,63kV,OFFICIAL,,,,RTE,,Yvelines,,Poste de transformation,,node_9483576617,1.0,,DANT5,,MISSING,2025-12-13T03:11:38.850801,
RTE_DARBL,DARBLAY,TX,RTE_ODRE,49.3691891,1.0071006,OSM,EXACT,225.0,,225kV,OFFICIAL,,,,RTE,,Seine-Maritime,,Poste de transformation,industrial,way_1220052058,1.0,,DARBL,,MISSING,2025-12-13T03:11:38.850808,
RTE_DEGA5,DEGAGNAC,TX,RTE_ODRE,,,MISSING,MISSING,63.0,,63kV,OFFICIAL,,,,RTE,,Lot,,Poste de transformation,,,,,DEGA5,,MISSING,2025-12-13T03:11:38.850811,
RTE_DOULL,DOULLENS,TX,RTE_ODRE,,,MISSING,MISSING,90.0,,90kV,OFFICIAL,,,,RTE,,Somme,,Poste de transformation,,,,,DOULL,,MISSING,2025-12-13T03:11:38.850815,
RTE_EMBRU,EMBRUN,TX,RTE_ODRE,44.5645995,6.5057095,OSM,EXACT,63.0,,63kV,OFFICIAL,,,,RTE,,Hautes-Alpes,,Poste de transformation,distribution,way_148586244,1.0,,EMBRU,,MISSING,2025-12-13T03:11:38.850818,
RTE_ERROU,ERROUVILLE,TX,RTE_ODRE,49.4120792,5.8995522,OSM,EXACT,63.0,,63kV,OFFICIAL,,,,RTE,,Meurthe-et-Moselle,,Poste de transformation,distribution,way_208385019,1.0,,ERROU,,MISSING,2025-12-13T03:11:38.850821,
RTE_ESSAR,ESSARS,TX,RTE_ODRE,,,MISSING,MISSING,90.0,,90kV,OFFICIAL,,,,RTE,,Pas-de-Calais,,Poste de transformation,,,,,ESSAR,,MISSING,2025-12-13T03:11:38.850825,
RTE_ROUVR,ROUVRAY,TX,RTE_ODRE,49.3686765,1.1051388,OSM,EXACT,,,HORS TENSION,OFFICIAL,,,,RTE,,Seine-Maritime,,Poste de transformation,transmission,relation_17873353,0.9,,ROUVR,,MISSING,2025-12-13T03:11:38.850828,
RTE_S.COM,SURY-LE-COMTAL,TX,RTE_ODRE,45.5399668,4.2012855,OSM,EXACT,63.0,,63kV,OFFICIAL,,,,RTE,,Loire,,Poste de transformation,distribution,way_131405195,1.0,,S.COM,,MISSING,2025-12-13T03:11:38.850831,
RTE_SAINT,SAINTES,TX,RTE_ODRE,45.7514584,-0.612777,OSM,EXACT,225.0,,225kV,OFFICIAL,,,,RTE,,Charente-Maritime,,Poste de transformation,transmission,way_105652455,1.0,,SAINT,,MISSING,2025-12-13T03:11:38.850837,
RTE_SARZE,SARZEAU,TX,RTE_ODRE,,,MISSING,MISSING,63.0,,63kV,OFFICIAL,,,,RTE,,Morbihan,,Poste de transformation,,,,,SARZE,,MISSING,2025-12-13T03:11:38.850840,
RTE_SAUCL,SAUCLIERES,TX,RTE_ODRE,,,MISSING,MISSING,63.0,,63kV,OFFICIAL,,,,RTE,,Hérault,,Poste de transformation,,,,,SAUCL,,MISSING,2025-12-13T03:11:38.850844,
RTE_SAUDR,SAUDRUPT,TX,RTE_ODRE,,,MISSING,MISSING,63.0,,63kV,OFFICIAL,,,,RTE,,Marne,,Poste de transformation,,,,,SAUDR,,MISSING,2025-12-13T03:11:38.850847,
RTE_SAULI,SAULIEU,TX,RTE_ODRE,,,MISSING,MISSING,63.0,,63kV,OFFICIAL,,,,RTE,,Côte-d'Or,,Poste de transformation,,,,,SAULI,,MISSING,2025-12-13T03:11:38.850850,
RTE_SAUV5,SAUVEUR,TX,RTE_ODRE,48.1682212,-2.6266901,OSM,EXACT,63.0,,63kV,OFFICIAL,,,,RTE,,Côtes-d'Armor,,Poste de transformation,distribution,way_201768702,1.0,,SAUV5,,MISSING,2025-12-13T03:11:38.851322,
RTE_SAUV6,SAUVETERRE,TX,RTE_ODRE,43.4734573,2.5524155,OSM,EXACT,63.0,,63kV,OFFICIAL,,,,RTE,,Gard,,Poste de transformation,minor_distribution,way_284165433,0.9,,SAUV6,,MISSING,2025-12-13T03:11:38.851380,
RTE_SEMIN,SEMINAIRE,TX,RTE_ODRE,46.535278,3.3617243,OSM,EXACT,225.0,,225kV,OFFICIAL,,,,RTE,,Allier,,Poste de transformation,distribution,way_137355542,1.0,,SEMIN,,MISSING,2025-12-13T03:11:38.851387,
RTE_SEVIG,SEVIGNAC,TX,RTE_ODRE,48.3141184,-2.3323007,OSM,EXACT,63.0,,63kV,OFFICIAL,,,,RTE,,Côtes-d'Armor,,Poste de transformation,,way_204467577,1.0,,SEVIG,,MISSING,2025-12-13T03:11:38.851391,
RTE_SIBEL,SIBELIN,TX,RTE_ODRE,45.6527135,4.8443599,OSM,EXACT,63.0,,63kV,OFFICIAL,,,,RTE,,Rhône,,Poste de transformation,traction,way_133868509,1.0,,SIBEL,,MISSING,2025-12-13T03:11:38.851395,
RTE_SISTE,SISTERON,TX,RTE_ODRE,44.2126386,5.9214068,OSM,EXACT,225.0,,225kV,OFFICIAL,,,,RTE,,Hautes-Alpes,,Poste de transformation,transmission,way_146534506,1.0,,SISTE,,MISSING,2025-12-13T03:11:38.851400,
RTE_SORGU,SORGUES,TX,RTE_ODRE,43.9852039,4.8664279,OSM,EXACT,63.0,,63kV,OFFICIAL,,,,RTE,,Vaucluse,,Poste de transformation,traction,way_589672370,1.0,,SORGU,,MISSING,2025-12-13T03:11:38.851404,
RTE_SORRU,SORRUS,TX,RTE_ODRE,50.4556589,1.7217369,OSM,EXACT,225.0,,225kV,OFFICIAL,,,,RTE,,Pas-de-Calais,,Poste de transformation,transmission,way_147580996,0.9,,SORRU,,MISSING,2025-12-13T03:11:38.851408,
RTE_SOULA,SOULAC (CLIENT),TX,RTE_ODRE,45.5046848,-1.1139817,OSM,EXACT,63.0,,63kV,OFFICIAL,,,,RTE,,,,Poste de transformation,,way_491113950,1.0,,SOULA,,MISSING,2025-12-13T03:11:38.851412,
RTE_SSAMO,ST AMOUR,TX,RTE_ODRE,48.6403857,2.568604,OSM,EXACT,225.0,,225kV,OFFICIAL,,,,RTE,,Rhône,,Poste de transformation,,way_1385849495,0.9,,SSAMO,,MISSING,2025-12-13T03:11:38.851416,
RTE_SSCOM,ST-GEORGES-DE-COMMIERS,TX,RTE_ODRE,47.9859925,0.1636351,OSM,EXACT,63.0,,63kV,OFFICIAL,,,,RTE,,Isère,,Poste de transformation,minor_distribution,way_67420008,0.9,,SSCOM,,MISSING,2025-12-13T03:11:38.851421,
RTE_SSDIE,ST-DIE,TX,RTE_ODRE,,,MISSING,MISSING,63.0,,63kV,OFFICIAL,,,,RTE,,Vosges,,Poste de transformation,,,,,SSDIE,,MISSING,2025-12-13T03:11:38.851425,
RTE_SSGEN,ST-GENIEZ,TX,RTE_ODRE,,,MISSING,MISSING,90.0,,90kV,OFFICIAL,,,,RTE,,Corrèze,,Poste de transformation,,,,,SSGEN,,MISSING,2025-12-13T03:11:38.851429,
RTE_SSROC,ST-ROCH,TX,RTE_ODRE,46.1932477,5.2240302,OSM,EXACT,225.0,,225kV,OFFICIAL,,,,RTE,,Nord,,Poste de transformation,,node_11576009839,1.0,,SSROC,,MISSING,2025-12-13T03:11:38.851433,
RTE_SSSA5,ST-SAUVEUR,TX,RTE_ODRE,48.1682212,-2.6266901,OSM,EXACT,63.0,,63kV,OFFICIAL,,,,RTE,,Ardèche,,Poste de transformation,distribution,way_201768702,0.9,,SSSA5,,MISSING,2025-12-13T03:11:38.851438,
RTE_T.FRO,TERRES-FROIDES,TX,RTE_ODRE,49.100897,-1.60229,OSM,EXACT,63.0,,63kV,OFFICIAL,,,,RTE,,Savoie,,Poste de transformation,minor_distribution,way_165062364,0.9,,T.FRO,,MISSING,2025-12-13T03:11:38.851442,
RTE_T.NOI,TERRES-NOIRES (S.N.C.F.),TX,RTE_ODRE,49.100897,-1.60229,OSM,EXACT,225.0,,225kV,OFFICIAL,,,,RTE,,Nord,,Poste de transformation,minor_distribution,way_165062364,0.9,,T.NOI,,MISSING,2025-12-13T03:11:38.851448,
RTE_TAVAU,TAVAUX (STE SOLVAY A TAVAUX),TX,RTE_ODRE,,,MISSING,MISSING,225.0,,225kV,OFFICIAL,,,,RTE,,Jura,,Poste de transformation,,,,,TAVAU,,MISSING,2025-12-13T03:11:38.851457,
RTE_TERNE,TERNES,TX,RTE_ODRE,48.8765226,2.2932252,OSM,EXACT,225.0,,225kV,OFFICIAL,,,,RTE,,Hauts-de-Seine,,Poste de transformation,distribution,way_84325599,0.9,,TERNE,,MISSING,2025-12-13T03:11:38.851461,
RTE_THIO5,THIONVILLE (CLIENT),TX,RTE_ODRE,48.3512749,2.0343319,OSM,EXACT,90.0,,90kV,OFFICIAL,,,,RTE,,Eure-et-Loir,,Poste de transformation,traction,way_132727403,0.9,,THIO5,,MISSING,2025-12-13T03:11:38.851466,
RTE_TOURN,TOURNON,TX,RTE_ODRE,,,MISSING,MISSING,63.0,,63kV,OFFICIAL,,,,RTE,,Ardèche,,Poste de transformation,,,,,TOURN,,MISSING,2025-12-13T03:11:38.851470,
RTE_USSON,USSON,TX,RTE_ODRE,,,MISSING,MISSING,63.0,,63kV,OFFICIAL,,,,RTE,,Aude,,Poste de transformation,,,,,USSON,,MISSING,2025-12-13T03:11:38.851473,
RTE_VAL,VAL (LE),TX,RTE_ODRE,50.6042171,5.492724,OSM,EXACT,63.0,,63kV,OFFICIAL,,,,RTE,,Var,,Poste de transformation,transmission,way_103041283,1.0,,VAL,,MISSING,2025-12-13T03:11:38.851477,
RTE_VALL7,VALLON,TX,RTE_ODRE,45.1927942,4.5344515,OSM,EXACT,63.0,,63kV,OFFICIAL,,,,RTE,,Cher,,Poste de transformation,minor_distribution,node_6813010495,1.0,,VALL7,,MISSING,2025-12-13T03:11:38.851480,
RTE_VERN9,VERNOSC,TX,RTE_ODRE,,,MISSING,MISSING,63.0,,63kV,OFFICIAL,,,,RTE,,Ardèche,,Poste de transformation,,,,,VERN9,,MISSING,2025-12-13T03:11:38.851484,
RTE_VERTE,VERTEFEUILLE,TX,RTE_ODRE,50.6764437,3.0371472,OSM,EXACT,225.0,,225kV,OFFICIAL,,,,RTE,,Nord,,Poste de transformation,transmission,way_131317126,1.0,,VERTE,,MISSING,2025-12-13T03:11:38.851488,
RTE_VIELM,VIELMOULIN,TX,RTE_ODRE,47.3263846,4.686932,OSM,EXACT,400.0,,400kV,OFFICIAL,,,,RTE,,Côte-d'Or,,Poste de transformation,transmission,way_179260933,1.0,,VIELM,,MISSING,2025-12-13T03:11:38.851491,
RTE_VITRE,VITRE,TX,RTE_ODRE,,,MISSING,MISSING,90.0,,90kV,OFFICIAL,,,,RTE,,Ille-et-Vilaine,,Poste de transformation,,,,,VITRE,,MISSING,2025-12-13T03:11:38.851497,
RTE_VLEJU,VILLEJUST,TX,RTE_ODRE,48.6763706,2.2302821,OSM,EXACT,400.0,,400kV,OFFICIAL,,,,RTE,,Essonne,,Poste de transformation,transmission,way_23287448,1.0,,VLEJU,,MISSING,2025-12-13T03:11:38.851501,
RTE_WAGE,WAGE,TX,RTE_ODRE,49.4193771,2.1180654,OSM,EXACT,63.0,,63kV,OFFICIAL,,,,RTE,,Oise,,Poste de transformation,,way_106059004,1.0,,WAGE,,MISSING,2025-12-13T03:11:38.851504,
RTE_ZBAS7,PIQUAGE A BASTIDONNE,TX,RTE_ODRE,,,MISSING,MISSING,63.0,,63kV,OFFICIAL,,,,RTE,,Bouches-du-Rhône,,Point de piquage,,,,,ZBAS7,,MISSING,2025-12-13T03:11:38.851508,
RTE_ZHARC,PIQUAGE A SAINT-OUEN-DU-BREUIL,TX,RTE_ODRE,45.8146979,1.781822,OSM,EXACT,90.0,,90kV,OFFICIAL,,,,RTE,,Seine-Maritime,,Point de piquage,,node_2905610575,0.9,,ZHARC,,MISSING,2025-12-13T03:11:38.851513,
RTE_ZM.BL,M.BL6 / ENVAL S.BES 1,TX,RTE_ODRE,45.7653335,2.9994195,OSM,EXACT,,,HORS TENSION,OFFICIAL,,,,RTE,,Puy-de-Dôme,,Point de piquage,transmission,way_136416550,0.9,,ZM.BL,,MISSING,2025-12-13T03:11:38.851517,
RTE_ZMATR,PIQUAGE MATRAS (LIAISON ALBAIAZ31VERLH),TX,RTE_ODRE,44.0382623,1.3659443,OSM,EXACT,63.0,,63kV,OFFICIAL,,,,RTE,,Tarn-et-Garonne,,Point de piquage,distribution,way_474123257,0.9,,ZMATR,,MISSING,2025-12-13T03:11:38.851520,
RTE_ZMED5,PIQUAGE MEDOQUINE (LIAISON PESSAZ31TALEN),TX,RTE_ODRE,44.8171639,-0.5987142,OSM,EXACT,63.0,,63kV,OFFICIAL,,,,RTE,,Gironde,,Point de piquage,yes,way_188915707,0.9,,ZMED5,,MISSING,2025-12-13T03:11:38.851523,
RTE_ZMERY,PIQUAGE A LABBEVILLE,TX,RTE_ODRE,,,MISSING,MISSING,63.0,,63kV,OFFICIAL,,,,RTE,,Val-d'Oise,,Point de piquage,,,,,ZMERY,,MISSING,2025-12-13T03:11:38.851527,
RTE_ZNAY5,PIQUAGE NAY SNCF (LIAISON COARRZ31SARSA),TX,RTE_ODRE,44.138083,4.819391,OSM,EXACT,63.0,,63kV,OFFICIAL,,,,RTE,,Pyrénées-Atlantiques,,Point de piquage,,way_79075607,0.9,,ZNAY5,,MISSING,2025-12-13T03:11:38.851532,
RTE_ZP.BR,V.MON / COMMA ONZAI 1,TX,RTE_ODRE,,,MISSING,MISSING,90.0,,90kV,OFFICIAL,,,,RTE,,Indre-et-Loire,,Point de piquage,,,,,ZP.BR,,MISSING,2025-12-13T03:11:38.851535,
RTE_ZPENA,PIQUAGE A PEN-AR-VERN,TX,RTE_ODRE,48.0607541,-1.610724,OSM,EXACT,63.0,,63kV,OFFICIAL,,,,RTE,,Finistère,,Point de piquage,distribution,way_194639031,0.9,,ZPENA,,MISSING,2025-12-13T03:11:38.851538,
RTE_ZPER5,PIQUAGE PERPIGNAN 2 (LIAISON CABESZ32M.BRU),TX,RTE_ODRE,42.6719079,2.9007266,OSM,EXACT,63.0,,63kV,OFFICIAL,,,,RTE,,Pyrénées-Orientales,,Point de piquage,traction,way_102796926,0.9,,ZPER5,,MISSING,2025-12-13T03:11:38.851542,
RTE_ZRAGE,RAGEA / CONTA MOTTA 1,TX,RTE_ODRE,,,MISSING,MISSING,63.0,,63kV,OFFICIAL,,,,RTE,,Savoie,,Point de piquage,,,,,ZRAGE,,MISSING,2025-12-13T03:11:38.851545,
RTE_ZREVE,REVE5 / BXREP GAMPA 2,TX,RTE_ODRE,,,MISSING,MISSING,63.0,,63kV,OFFICIAL,,,,RTE,,Drôme,,Point de piquage,,,,,ZREVE,,MISSING,2025-12-13T03:11:38.851548,
RTE_ZS.M5,S.MOR / CHANC VOUGL 1,TX,RTE_ODRE,,,MISSING,MISSING,63.0,,63kV,OFFICIAL,,,,RTE,,Jura,,Point de piquage,,,,,ZS.M5,,MISSING,2025-12-13T03:11:38.851552,
RTE_ZSOU6,PIQUAGE ADAST (LIAISON SARSAZ31SOULO),TX,RTE_ODRE,,,MISSING,MISSING,63.0,,63kV,OFFICIAL,,,,RTE,,Hautes-Pyrénées,,Point de piquage,,,,,ZSOU6,,MISSING,2025-12-13T03:11:38.851555,
RTE_ZSSAG,PIQUAGE STE-AGATHE (LIGNE N0 1),TX,RTE_ODRE,,,MISSING,MISSING,63.0,,63kV,OFFICIAL,,,,RTE,,Moselle,,Point de piquage,,,,,ZSSAG,,MISSING,2025-12-13T03:11:38.851558,
RTE_ZSSVA,PIQUAGE A ST-PARRES-LES-VAUDES,TX,RTE_ODRE,,,MISSING,MISSING,63.0,,63kV,OFFICIAL,,,,RTE,,Aube,,Point de piquage,,,,,ZSSVA,,MISSING,2025-12-13T03:11:38.851561,
RTE_ZTHO5,PIQUAGE A THOR 2 (LE),TX,RTE_ODRE,,,MISSING,MISSING,63.0,,63kV,OFFICIAL,,,,RTE,,Vaucluse,,Point de piquage,,,,,ZTHO5,,MISSING,2025-12-13T03:11:38.851564,
RTE_ZTHOR,PIQUAGE A THOR 1 (LE),TX,RTE_ODRE,,,MISSING,MISSING,63.0,,63kV,OFFICIAL,,,,RTE,,Vaucluse,,Point de piquage,,,,,ZTHOR,,MISSING,2025-12-13T03:11:38.851570,
RTE_ZV.A5,PIQUAGE VALENCE D AGEN (LIAISON GOLFEZ31MOISS),TX,RTE_ODRE,48.01616,0.2250218,OSM,EXACT,63.0,,63kV,OFFICIAL,,,,RTE,,Tarn-et-Garonne,,Point de piquage,minor_distribution,way_66196956,0.9,,ZV.A5,,MISSING,2025-12-13T03:11:38.851573,
RTE_ZVENI,VENIS / MIONS MOUCH 2,TX,RTE_ODRE,45.6742597,4.9753804,OSM,EXACT,,,HORS TENSION,OFFICIAL,,,,RTE,,Rhône,,Point de piquage,transmission,way_24020441,0.9,,ZVENI,,MISSING,2025-12-13T03:11:38.851576,
RTE_MONN5,MONNERVILLE,TX,RTE_ODRE,,,MISSING,MISSING,90.0,,90kV,OFFICIAL,,,,RTE,,Eure-et-Loir,,Poste de transformation,,,,,MONN5,,MISSING,2025-12-13T03:11:38.851582,
RTE_EPIZO,EPIZON - LES HAUTS PAYS,TX,RTE_ODRE,48.3957825,5.330008,OSM,EXACT,225.0,,225kV,OFFICIAL,,,,RTE,,Haute-Marne,,Poste de transformation,distribution,way_392683619,0.9,,EPIZO,,MISSING,2025-12-13T03:11:38.851585,
RTE_LUCE,RSEIPC (SIEGE SOCIAL),TX,RTE_ODRE,,,MISSING,MISSING,45.0,,<45kV,OFFICIAL,,,,RTE,,Eure-et-Loir,,Poste de transformation,,,,,LUCE,,MISSING,2025-12-13T03:11:38.851588,
RTE_ZIVR5,PIQUAGE A IVRY5 (CLIENT),TX,RTE_ODRE,,,MISSING,MISSING,63.0,,63kV,OFFICIAL,,,,RTE,,Paris,,Point de piquage,,,,,ZIVR5,,MISSING,2025-12-13T03:11:38.851592,
RTE_MORCH,MORCHIES,TX,RTE_ODRE,50.1259751,2.952355,OSM,EXACT,225.0,,225kV,OFFICIAL,,,,RTE,,Pas-de-Calais,,Poste de transformation,transmission,way_986506106,1.0,,MORCH,,MISSING,2025-12-13T03:11:38.851595,
RTE_BEL12,BELLAC (RINGO),TX,RTE_ODRE,46.1052471,1.0436444,OSM,EXACT,90.0,,90kV,OFFICIAL,,,,RTE,,Haute-Vienne,,Poste de transformation,distribution,way_355799177,1.0,,BEL12,,MISSING,2025-12-13T03:11:38.851598,
RTE_JURA5,JURANCON (TELECOM),TX,RTE_ODRE,,,MISSING,MISSING,,,HORS TENSION,OFFICIAL,,,,RTE,,Pyrénées-Atlantiques,,Poste de transformation,,,,,JURA5,,MISSING,2025-12-13T03:11:38.851602,
RTE_ZROCB,PIQUAGE A ROCBARON,TX,RTE_ODRE,,,MISSING,MISSING,225.0,,225kV,OFFICIAL,,,,RTE,,Var,,Point de piquage,,,,,ZROCB,,MISSING,2025-12-13T03:11:38.851605,
RTE_LAITI,LAITIER (LE),TX,RTE_ODRE,,,MISSING,MISSING,90.0,,90kV,OFFICIAL,,,,RTE,,Vienne,,Poste de transformation,,,,,LAITI,,MISSING,2025-12-13T03:11:38.851608,
RTE_G.CER,GORGES-DE-LA-CERE,TX,RTE_ODRE,,,MISSING,MISSING,63.0,,63kV,OFFICIAL,,,,RTE,,Corrèze,,Poste de transformation,,,,,G.CER,,MISSING,2025-12-13T03:11:38.851614,
RTE_CALA5,CALAN,TX,RTE_ODRE,47.8806647,-3.3031278,OSM,EXACT,400.0,,400kV,OFFICIAL,,,,RTE,,Morbihan,,Poste de transformation,transmission,way_210389707,1.0,,CALA5,,MISSING,2025-12-13T03:11:38.851618,
RTE_ZBAST,PIQUAGE A BASTILLE,TX,RTE_ODRE,,,MISSING,MISSING,225.0,,225kV,OFFICIAL,,,,RTE,,Loire-Atlantique,,Point de piquage,,,,,ZBAST,,MISSING,2025-12-13T03:11:38.851623,
RTE_ZMORE,PIQUAGE A MOREAU,TX,RTE_ODRE,43.2113241,2.3902336,OSM,EXACT,225.0,,225kV,OFFICIAL,,,,RTE,,Aude,,Point de piquage,transmission,way_110602441,0.9,,ZMORE,,MISSING,2025-12-13T03:11:38.851627,
RTE_SAONE,SAONE,TX,RTE_ODRE,47.2333764,6.1360661,OSM,EXACT,225.0,,225kV,OFFICIAL,,,,RTE,,Doubs,,Poste de transformation,transmission,way_589691209,1.0,,SAONE,,MISSING,2025-12-13T03:11:38.851630,
RTE_NEGR5,NEGREPELISSE,TX,RTE_ODRE,44.0508133,1.5118501,OSM,EXACT,225.0,,225kV,OFFICIAL,,,,RTE,,Tarn-et-Garonne,,Poste de transformation,distribution,way_1236930242,1.0,,NEGR5,,MISSING,2025-12-13T03:11:38.851634,
RTE_PIOVI,PIOVIT,TX,RTE_ODRE,,,MISSING,MISSING,63.0,,63kV,OFFICIAL,,,,RTE,,Dordogne,,Poste de transformation,,,,,PIOVI,,MISSING,2025-12-13T03:11:38.851637,
RTE_ZJUST,PIQUAGE A LA JUSTICE,TX,RTE_ODRE,48.323911,1.6594975,OSM,EXACT,225.0,,225kV,OFFICIAL,,,,RTE,,Eure-et-Loir,,Point de piquage,generation,way_627450679,0.9,,ZJUST,,MISSING,2025-12-13T03:11:38.851640,
RTE_MARIT,MARITIME,TX,RTE_ODRE,49.3511249,0.9894209,OSM,EXACT,90.0,,90kV,OFFICIAL,,,,RTE,,Eure,,Poste de transformation,traction,way_488898563,1.0,,MARIT,,MISSING,2025-12-13T03:11:38.851644,
RTE_G.MAS,GRAND-MAS (LE),TX,RTE_ODRE,45.5551061,3.2627824,OSM,EXACT,225.0,,225kV,OFFICIAL,,,,RTE,,Puy-de-Dôme,,Poste de transformation,industrial,way_823872755,0.9,,G.MAS,,MISSING,2025-12-13T03:11:38.851647,
RTE_GUER8,GUERACHE (LA),TX,RTE_ODRE,,,MISSING,MISSING,225.0,,225kV,OFFICIAL,,,,RTE,,Var,,Poste de transformation,,,,,GUER8,,MISSING,2025-12-13T03:11:38.851651,
RTE_RUYTI,RUYTINGEN (DUNKERQUE LNG),TX,RTE_ODRE,,,MISSING,MISSING,90.0,,90kV,OFFICIAL,,,,RTE,,,,Poste de transformation,,,,,RUYTI,,MISSING,2025-12-13T03:11:38.851655,
RTE_ZF.SS,PIQUAGE A LA FONTAINE-ST-HUBERT,TX,RTE_ODRE,47.1583814,5.9307531,OSM,EXACT,63.0,,63kV,OFFICIAL,,,,RTE,,Marne,,Point de piquage,minor_distribution,node_6472867425,0.9,,ZF.SS,,MISSING,2025-12-13T03:11:38.851658,
RTE_ZGARA,PIQUAGE A GARANGER,TX,RTE_ODRE,,,MISSING,MISSING,90.0,,90kV,OFFICIAL,,,,RTE,,Vendée,,Point de piquage,,,,,ZGARA,,MISSING,2025-12-13T03:11:38.851662,
RTE_V.POR,VIEUX-PORT,TX,RTE_ODRE,49.1100215,6.1632117,OSM,EXACT,225.0,,225kV,OFFICIAL,,,,RTE,,,,Poste de transformation,minor_distribution,node_11739041609,1.0,,V.POR,,MISSING,2025-12-13T03:11:38.851666,
RTE_CZSEU,COURSEULLES (SUR-MER),TX,RTE_ODRE,,,MISSING,MISSING,225.0,,225kV,OFFICIAL,,,,RTE,,,,Poste de transformation,,,,,CZSEU,,MISSING,2025-12-13T03:11:38.851669,
RTE_1BAS5,BASSIES,TX,RTE_ODRE,,,MISSING,MISSING,45.0,,<45kV,OFFICIAL,,,,RTE,,Ariège,,Poste de transformation,,,,,1BAS5,,MISSING,2025-12-13T03:11:38.851673,
RTE_ALBE5,ALBERT,TX,RTE_ODRE,44.8063167,-0.6105559,OSM,EXACT,90.0,,90kV,OFFICIAL,,,,RTE,,Somme,,Poste de transformation,minor_distribution,way_447502195,1.0,,ALBE5,,MISSING,2025-12-13T03:11:38.851678,
RTE_ALLAI,ALLAIRE,TX,RTE_ODRE,,,MISSING,MISSING,63.0,,63kV,OFFICIAL,,,,RTE,,Morbihan,,Poste de transformation,,,,,ALLAI,,MISSING,2025-12-13T03:11:38.851682,
RTE_ANNAY,ANNAY,TX,RTE_ODRE,,,MISSING,MISSING,63.0,,63kV,OFFICIAL,,,,RTE,,Yonne,,Poste de transformation,,,,,ANNAY,,MISSING,2025-12-13T03:11:38.851685,
RTE_AUXER,AUXERRE,TX,RTE_ODRE,,,MISSING,MISSING,63.0,,63kV,OFFICIAL,,,,RTE,,Yonne,,Poste de transformation,,,,,AUXER,,MISSING,2025-12-13T03:11:38.851688,
RTE_AVIO5,AVION,TX,RTE_ODRE,,,MISSING,MISSING,90.0,,90kV,OFFICIAL,,,,RTE,,Pas-de-Calais,,Poste de transformation,,,,,AVIO5,,MISSING,2025-12-13T03:11:38.851692,
RTE_AVORI,AVORIAZ,TX,RTE_ODRE,46.1981999,6.7670528,OSM,EXACT,63.0,,63kV,OFFICIAL,,,,RTE,,Haute-Savoie,,Poste de transformation,distribution,way_283835467,1.0,,AVORI,,MISSING,2025-12-13T03:11:38.851697,
RTE_B.BAS,BAS-EN-BASSET,TX,RTE_ODRE,,,MISSING,MISSING,63.0,,63kV,OFFICIAL,,,,RTE,,Haute-Loire,,Poste de transformation,,,,,B.BAS,,MISSING,2025-12-13T03:11:38.851701,
RTE_BAGE,BAGE (STATION DE POMPAGE),TX,RTE_ODRE,,,MISSING,MISSING,63.0,,63kV,OFFICIAL,,,,RTE,,Aveyron,,Poste de transformation,,,,,BAGE,,MISSING,2025-12-13T03:11:38.851704,
RTE_BAGNE,BAGNEAUX,TX,RTE_ODRE,,,MISSING,MISSING,63.0,,63kV,OFFICIAL,,,,RTE,,Seine-et-Marne,,Poste de transformation,,,,,BAGNE,,MISSING,2025-12-13T03:11:38.851708,
RTE_BALLO,BALLON,TX,RTE_ODRE,48.0197251,0.2031888,OSM,EXACT,90.0,,90kV,OFFICIAL,,,,RTE,,Nord,,Poste de transformation,minor_distribution,way_67425828,1.0,,BALLO,,MISSING,2025-12-13T03:11:38.851711,
RTE_BAZAS,BAZAS,TX,RTE_ODRE,44.4137641,-0.218302,OSM,EXACT,63.0,,63kV,OFFICIAL,,,,RTE,,Gironde,,Poste de transformation,transmission,way_193199519,1.0,,BAZAS,,MISSING,2025-12-13T03:11:38.851714,
RTE_BERT5,BERTHOLLET,TX,RTE_ODRE,48.8065107,2.3278481,OSM,EXACT,225.0,,225kV,OFFICIAL,,,,RTE,,Hauts-de-Seine,,Poste de transformation,transmission,way_682366021,1.0,,BERT5,,MISSING,2025-12-13T03:11:38.851718,
RTE_BETHO,BETHONCOURT,TX,RTE_ODRE,,,MISSING,MISSING,63.0,,63kV,OFFICIAL,,,,RTE,,Doubs,,Poste de transformation,,,,,BETHO,,MISSING,2025-12-13T03:11:38.851721,
RTE_BEUVR,BEUVRY (LABOURSE),TX,RTE_ODRE,50.5057452,2.6811991,OSM,EXACT,225.0,,225kV,OFFICIAL,,,,RTE,,Pas-de-Calais,,Poste de transformation,transmission,way_170043026,1.0,,BEUVR,,MISSING,2025-12-13T03:11:38.851724,
RTE_BEZON,BEZON,TX,RTE_ODRE,47.9066593,-2.4171216,OSM,EXACT,225.0,,225kV,OFFICIAL,,,,RTE,,Morbihan,,Poste de transformation,transmission,way_146360239,1.0,,BEZON,,MISSING,2025-12-13T03:11:38.851728,
RTE_BISC5,BISCHWILLER,TX,RTE_ODRE,,,MISSING,MISSING,63.0,,63kV,OFFICIAL,,,,RTE,,Bas-Rhin,,Poste de transformation,,,,,BISC5,,MISSING,2025-12-13T03:11:38.851739,
RTE_BISSY,BISSY,TX,RTE_ODRE,45.5902758,5.9006445,OSM,EXACT,225.0,,225kV,OFFICIAL,,,,RTE,,Savoie,,Poste de transformation,transmission,way_56585982,1.0,,BISSY,,MISSING,2025-12-13T03:11:38.851743,
RTE_BOLOG,BOLOGNE (FORGES),TX,RTE_ODRE,48.1976824,5.1633733,OSM,EXACT,63.0,,63kV,OFFICIAL,,,,RTE,,Haute-Marne,,Poste de transformation,industrial,way_490348729,1.0,,BOLOG,,MISSING,2025-12-13T03:11:38.851746,
RTE_BONNE,BONNETERRE,TX,RTE_ODRE,45.7639152,4.8822819,OSM,EXACT,225.0,,225kV,OFFICIAL,,,,RTE,,Rhône,,Poste de transformation,distribution,way_84810304,1.0,,BONNE,,MISSING,2025-12-13T03:11:38.851749,
